city_name,latitude,longitude,capital,population,country_id
Tokyo,35.6897,139.6922,1,37732000,113
Jakarta,-6.175,106.8275,1,33756000,105
Delhi,28.61,77.23,0,32226000,104
Guangzhou,23.13,113.26,0,26940000,45
!mumbai,19.0761,72.8775,0,24973000,104
Manila,14.5958,120.9772,1,24922000,181
Shanghai,31.1667,121.4667,0,24073000,45
Sao paulo,-23.55,-46.6333,0,23086000,31
Seoul,37.56,126.99,1,23016000,120
Mexico city,19.4333,-99.1333,1,21804000,145
Mexico city,19.4333,-99.1333,1,21804000,146
Cairo,30.0444,31.2358,1,20296000,65
New york,40.6943,-73.9249,0,18972871,240
Dhaka,23.7639,90.3889,1,18627000,18
Beijing,39.904,116.4075,1,18522000,45
Kolkata,22.5675,88.37,0,18502000,104
Bangkok,13.7525,100.4942,1,18007000,226
Shenzhen,22.535,114.054,0,17619000,45
Moscow,55.7558,37.6178,1,17332000,188
Buenos aires,-34.5997,-58.3819,1,16710000,10
Lagos,6.455,3.3841,0,16637000,165
Istanbul,41.0136,28.955,0,16079000,232
Karachi,24.86,67.01,0,15738000,174
Bangalore,12.9789,77.5917,0,15386000,104
Ho chi minh city,10.7756,106.7019,0,15136000,248
Osaka,34.6939,135.5022,0,15126000,113
Chengdu,30.66,104.0633,0,14645000,45
Tehran,35.6892,51.3889,1,14148000,106
Kinshasa,-4.325,15.3222,1,12836000,51
Rio de janeiro,-22.9111,-43.2056,0,12592000,31
Chennai,13.0825,80.275,0,12395000,104
Xi'an,34.2667,108.9,0,12328000,45
Lahore,31.5497,74.3436,0,12306000,174
Chongqing,29.55,106.5069,0,12135000,45
Los angeles,34.1141,-118.4068,0,12121244,240
Baoding,38.8671,115.4845,0,11860000,45
London,51.5072,-0.1275,1,11262000,239
Paris,48.8567,2.3522,1,11060000,77
Linyi,35.1041,118.3502,0,11018365,45
Dongguan,23.0475,113.7493,0,10646000,45
Hyderabad,17.385,78.4867,0,10494000,104
Tianjin,39.1467,117.2056,0,10368000,45
Lima,-12.06,-77.0375,1,10320000,180
Wuhan,30.5872,114.2881,0,10251000,45
Nanyang,32.9987,112.5292,0,10013600,45
Hangzhou,30.25,120.1675,0,9523000,45
Foshan,23.0292,113.1056,0,9498863,45
Nagoya,35.1833,136.9,0,9197000,113
Taipei,25.0375,121.5625,1,9078000,224
Tongshan,34.261,117.1859,0,9083790,45
Luanda,-8.8383,13.2344,1,9051000,7
Zhoukou,33.625,114.6418,0,9026015,45
Ganzhou,25.8292,114.9336,0,8970014,45
Kuala lumpur,3.1478,101.6953,1,8911000,136
Heze,35.2333,115.4333,0,8795939,45
Quanzhou,24.9139,118.5858,0,8782285,45
Chicago,41.8375,-87.6866,0,8595181,240
Nanjing,32.0608,118.7789,0,8422000,45
Jining,35.4,116.5667,0,8357897,45
Hanoi,21.0283,105.8542,1,8246600,248
Pune,18.5203,73.8567,0,8231000,104
Fuyang,32.8986,115.8045,0,8200264,45
Ahmedabad,23.03,72.58,0,8009000,104
Johannesburg,-26.2044,28.0456,0,8000000,212
Bogota,4.7111,-74.0722,1,7968095,47
Bogota,4.7111,-74.0722,1,7968095,48
Shenyang,41.8025,123.4281,0,7964000,45
Khartoum,15.5006,32.56,1,7869000,217
Shangqiu,34.4259,115.6467,0,7816831,45
Cangzhou,38.3037,116.8452,0,7544300,45
Hong kong,22.3,114.2,1,7450000,101
Shaoyang!,27.2418,111.4725,0,7370500,45
Zhanjiang,21.1967,110.4031,0,7332000,45
Yancheng,33.3936,120.1339,0,7260240,45
Hengyang,26.8968,112.5857,0,7243400,45
Riyadh,24.6333,46.7167,1,7237000,170
Zhumadian,32.9773,114.0253,0,7231234,45
Santiago,-33.4372,-70.6506,1,7171000,43
Santiago,-33.4372,-70.6506,1,7171000,44
Xingtai,37.0659,114.4753,0,7111106,45
Chattogram,22.335,91.8325,0,7000000,18
Bijie,27.3019,105.2863,0,6899636,45
Shangrao,28.4419,117.9633,0,6810700,45
Zunyi,27.705,106.9336,0,6606675,45
Surat,21.1702,72.8311,0,6538000,104
Surabaya,-7.2458,112.7378,0,6499000,105
Huanggang,30.45,114.875,0,6333000,45
Maoming,21.6618,110.9178,0,6313200,45
Nanchong,30.7991,106.0784,0,6278614,45
Xinyang,32.1264,114.0672,0,6234401,45
Madrid,40.4169,-3.7033,1,6211000,215
Baghdad,33.3153,44.3661,1,6183000,107
Qujing,25.5102,103.8029,0,6155400,45
Jieyang,23.5533,116.3649,0,6089400,45
Singapore,1.3,103.8,1,5983000,205
Prayagraj,25.4358,81.8464,0,5954391,104
Liaocheng,36.45,115.9833,0,5952128,45
Dalian,38.9,121.6,0,5871474,45
Yulin,22.6293,110.1507,0,5849700,45
Changde,29.0397,111.6839,0,5827200,45
Qingdao,36.1167,120.4,0,5818255,45
Douala,4.05,9.7,0,5768400,38
Miami,25.784,-80.2101,0,5711945,240
Nangandao,35.2992,113.8851,0,5708191,45
Pudong,31.2231,121.5397,0,5681512,45
Xiangyang,32.0654,112.1531,0,5680000,45
Dallas,32.7935,-96.7667,0,5668165,240
Houston,29.786,-95.3885,0,5650910,240
Zhengzhou,34.7492,113.6605,0,5621593,45
Lu'an,31.7542,116.5078,0,5611701,45
Dezhou,37.4513,116.3105,0,5611194,45
Jinan,36.6667,116.9833,0,5606374,45
Giza,29.987,31.2118,0,5598402,65
Zhaotong,27.3328,103.7144,0,5591000,45
Yichun,27.8041,114.383,0,5573200,45
Nairobi,-1.2864,36.8172,1,5545000,117
Guadalajara,20.6767,-103.3475,0,5525000,145
Guadalajara,20.6767,-103.3475,0,5525000,146
Philadelphia,40.0077,-75.1339,0,5512873,240
Ankara,39.93,32.85,1,5503985,232
Tai'an,36.2001,117.0809,0,5494207,45
Dazhou,31.2152,107.4947,0,5468097,45
Langfang,39.5196,116.7006,0,5464087,45
Yongzhou,26.4515,111.5953,0,5452100,45
Toronto,43.7417,-79.3733,0,5429524,39
Suihua,46.6384,126.9808,0,5418153,45
Saint petersburg,59.95,30.3167,0,5384342,188
Qiqihar,47.3398,123.9512,0,5367003,45
Suzhou,33.6333,116.9683,0,5352924,45
Monterrey,25.6667,-100.3,0,5341171,145
Monterrey,25.6667,-100.3,0,5341171,146
Belo horizonte,-19.9167,-43.9333,0,5328000,31
Weinan,34.4996,109.4684,0,5286077,45
Rangoon,16.795,96.16,1,5209541,154
Zhangzhou,24.5093,117.6612,0,5140000,45
Yuncheng,35.0304,110.998,0,5134779,45
Xianyang,34.35,108.7167,0,5096001,45
Guilin,25.2819,110.2864,0,5085500,45
Atlanta,33.7628,-84.422,0,5046555,240
Taizhou,32.4831,119.9,0,5031000,45
Kashan,33.9833,51.4333,0,5000000,106
Bozhou,33.8626,115.7742,0,4996844,45
Abidjan,5.3167,-4.0333,1,4980000,54
Suqian,33.9331,118.2831,0,4986192,45
Huaihua,27.5494,109.9592,0,4979600,45
Ji'an,27.1172,114.9793,0,4956600,45
Xiaoganzhan,30.9273,113.911,0,4921000,45
Pingdingshan,33.735,113.2999,0,4904701,45
Jiujiang,29.7048,116.0021,0,4896800,45
Alexandria,31.1975,29.8925,0,4870000,65
Mianyang,31.4669,104.7385,0,4868243,45
Sydney,-33.8678,151.21,0,4840600,13
Huanglongsi,34.795,114.345,0,4824016,45
Washington,38.9047,-77.0163,1,4810669,240
Barcelona,41.3825,2.1769,0,4800000,215
Changsha,28.1987,112.9709,0,4766296,45
Chenzhou,25.7989,113.0267,0,4744500,45
Anqing,30.5,117.0333,0,4723000,45
Jiangmen,22.5833,113.0833,0,4630300,45
Xinpu,34.5906,119.1801,0,4599360,45
Yibin,28.7596,104.64,0,4588804,45
Yangzhou,32.3912,119.4363,0,4559797,45
Melbourne,-37.8142,144.9631,0,4529500,13
Berlin,52.52,13.405,1,4473101,84
Hengshui,37.7348,115.686,0,4472000,45
Timbio,2.3445,-76.6839,0,4444444,47
Timbio,2.3445,-76.6839,0,4444444,48
Kunming,25.0433,102.7061,0,4422686,45
Yiyang,28.5833,112.3333,0,4413800,45
Guigang,23.0961,109.6092,0,4409200,45
Changchun,43.9,125.2,0,4408154,45
Jiangguanchi,34.0244,113.8201,0,4379998,45
!casablanca,33.5333,-7.5833,0,4370000,152
Meizhou,24.2998,116.1191,0,4378800,45
Zhangjiakou,40.8108,114.8811,0,4345485,45
Chifeng,42.2663,118.9223,0,4341245,45
Urumqi,43.8225,87.6125,0,4335017,45
Suzhou,31.3,120.6194,0,4330000,45
Izmir,38.42,27.14,0,4320519,232
Linfen,36.0812,111.5087,0,4316610,45
Shantou,23.3735,116.6941,0,4312192,45
Kabul,34.5253,69.1783,1,4273156,1
Mogadishu,2.0392,45.3419,1,4249083,211
Luzhou,28.8918,105.4409,0,4218427,45
Hefei,31.8639,117.2808,0,4216940,45
Boston,42.3188,-71.0852,0,4208580,240
Liuzhou,24.3264,109.4281,0,4157934,45
Zhaoqing,23.05,112.4667,0,4151700,45
Xiaoxita,30.7083,111.2803,0,4137900,45
Shijiazhuang,38.0422,114.5086,0,4098243,45
Ningbo,29.875,121.5492,0,4087523,45
Fuzhou,27.9814,116.3577,0,4047200,45
Phoenix,33.5722,-112.0892,0,4047095,240
Zhuzhou,27.8407,113.1469,0,4020800,45
Amman,31.9497,35.9328,1,4007526,115
Chuzhou,32.3062,118.3115,0,3987054,45
Jeddah,21.5433,39.1728,0,3976000,170
Qingyuan,23.6842,113.0507,0,3969473,45
Loudi,27.7378,111.9974,0,3931800,45
Binzhou,37.3806,118.0125,0,3928568,45
Deyang,31.1289,104.395,0,3877000,45
Taiyuan,37.8733,112.5425,0,3875053,45
Kano,12.0,8.5167,0,3848885,165
Wuhu,31.334,118.3622,0,3842100,45
Nanning,22.8192,108.315,0,3837978,45
Harbin,45.75,126.6333,0,3830000,45
Abuja,9.0667,7.4833,1,3770000,165
Yokohama,35.4442,139.6381,0,3757630,113
Baojishi,34.3609,107.1751,0,3738700,45
Zaozhuang,34.8667,117.55,0,3729140,45
Xiamen,24.4797,118.0819,0,3707090,45
Neijiang,29.5872,105.0635,0,3702847,45
Fuzhou,26.0769,119.2917,0,3671192,45
Baicheng,23.901,106.6194,0,3669400,45
Anshan,41.1066,122.9895,0,3645884,45
Medan,3.5894,98.6739,0,3632000,105
Yulinshi,38.2655,109.7388,0,3634750,45
Wenzhou,27.9991,120.6561,0,3604446,45
Changzhou,31.8122,119.9692,0,3601079,45
Puyang,35.7639,115.03,0,3598740,45
Jiaozuo,35.229,113.2304,0,3590700,45
Nanchang,28.6842,115.8872,0,3576547,45
Ibadan,7.3964,3.9167,0,3552000,165
Hechi,24.6928,108.085,0,3545700,45
Detroit,42.3834,-83.1024,0,3522856,240
Montreal,45.5089,-73.5617,0,3519595,39
Busan,35.18,129.075,0,3453198,120
Hohhot,40.8151,111.6629,0,3446100,45
Seattle,47.6211,-122.3244,0,3438221,240
Algiers,36.7539,3.0589,1,3415811,3
Hanzhong,33.0794,107.026,0,3416196,45
Tangshan,39.6292,118.1742,0,3399231,45
Shiyan,32.6351,110.7755,0,3398000,45
Lucknow,26.85,80.95,0,3382000,104
Siping,43.1715,124.3644,0,3385156,45
Mashhad,36.3,59.6,0,3372090,106
Boankra,6.6944,-1.4028,0,3348000,85
Changzhi,36.1953,113.097,0,3334565,45
Dubai,25.2631,55.2972,0,3331420,238
Qinzhou,21.95,108.6167,0,3304400,45
Guiyang,26.5794,106.7078,0,3299724,45
Bengbu,32.9354,117.3531,0,3296408,45
San francisco,37.7558,-122.4449,0,3290197,240
Bazhou,31.8576,106.7559,0,3283148,45
Qincheng,34.5809,105.7311,0,3262549,45
Suining,30.5098,105.5737,0,3252619,45
Wuxi,31.5667,120.2833,0,3245179,45
Leshan,29.5854,103.7575,0,3235759,45
Putian,25.4394,119.0103,0,3210714,45
Zhenjiang,32.2109,119.4551,0,3210418,45
Faisalabad,31.4167,73.0911,0,3203846,174
Guang'an,30.4673,106.6336,0,3205476,45
Tongren,27.7233,109.1885,0,3168800,45
Santa cruz,-17.7892,-63.1975,0,3151676,27
Santa cruz,-17.7892,-63.1975,0,3151676,28
Qinhuangdao,39.9398,119.5881,0,3146300,45
Tongliao,43.6172,122.264,0,3139153,45
Jinzhou,41.1144,121.1292,0,3126463,45
Heyuan,23.7503,114.6923,0,3093900,45
San diego,32.8313,-117.1222,0,3084174,240
Jaipur,26.9,75.8,0,3073350,104
Xinzhou,38.4178,112.7233,0,3067501,45
Lanzhou,36.0617,103.8318,0,3067141,45
Wuzhou,23.4833,111.3167,0,3061100,45
Athens,37.9842,23.7281,1,3041131,87
Addis ababa,9.03,38.74,1,3041002,72
Chaoyang,41.5757,120.4486,0,3044641,45
Brasilia,-15.7939,-47.8828,1,3039444,31
Taichung,24.1439,120.6794,0,3033885,224
Kuwait city,29.3697,47.9783,1,3000000,121
Budapest,47.4925,19.0514,1,2997958,102
Shaoguan,24.8011,113.5927,0,2997600,45
Shanwei,22.7664,115.3331,0,2993600,45
Quezon city,14.63,121.03,0,2960048,181
Rizhao,35.4164,119.4331,0,2968365,45
Kyiv,50.45,30.5233,1,2963199,237
Sanaa,15.3483,44.2064,1,2957000,252
Meishan,30.0575,103.8381,0,2950545,45
Incheon,37.4833,126.6333,0,2936117,120
Guatemala city,14.6099,-90.5252,1,2934841,92
Birmingham,52.48,-1.9025,0,2919600,239
Zhongshan,22.5333,113.35,0,2909633,45
Ningde,26.6617,119.5228,0,2910000,45
Weihai,37.5,122.1,0,2906548,45
Daqing,46.5979,125.008,0,2904532,45
Bursa,40.1833,29.05,0,2901396,232
Salvador,-12.9747,-38.4767,0,2886698,31
Rome,41.8931,12.4828,1,2872800,111
Haikou,20.02,110.32,0,2873358,45
La paz,-16.5,-68.15,1,2867504,27
La paz,-16.5,-68.15,1,2867504,28
Xiangtan,27.8431,112.9228,0,2864800,45
Pyongyang,39.0194,125.7381,1,2863000,119
Minneapolis,44.9635,-93.2678,0,2856952,240
Omdurman,15.65,32.4833,0,2805396,217
Malang,-7.98,112.62,0,2795209,105
Mudanjiang,44.5861,129.5997,0,2798723,45
Stuttgart,48.7775,9.18,0,2787724,84
Brooklyn,40.6501,-73.9496,0,2736074,240
Kaohsiung,22.615,120.2975,0,2733566,224
Guayaquil,-2.19,-79.8875,0,2723665,64
Lisbon,38.7253,-9.15,1,2719000,184
Longyan,25.0881,117.0244,0,2723637,45
Tieling,42.2841,123.8365,0,2717732,45
Manchester,53.4794,-2.2453,0,2705000,239
Baotou,40.6562,109.8345,0,2709378,45
Handan,36.6116,114.4894,0,2708015,45
Cawnpore,26.4499,80.3319,0,2701324,104
Dingxi,35.5806,104.6263,0,2698624,45
Nanping,26.6448,118.1728,0,2690000,45
Tampa,27.9945,-82.4447,0,2683956,240
Zigong,29.3498,104.7645,0,2678899,45
Maracaibo,10.6333,-71.6333,0,2658355,246
Maracaibo,10.6333,-71.6333,0,2658355,247
Chaozhou,23.67,116.63,0,2656600,45
Mbuji-mayi,-6.15,23.6,0,2643000,51
Denver,39.762,-104.8758,0,2650725,240
Gulou,26.0865,119.298,0,2606000,45
Weifang,36.7167,119.1,0,2636154,45
Huai'an,33.5058,119.1392,0,2632788,45
Zibo,36.7831,118.0497,0,2631647,45
Ankang,32.6877,109.0235,0,2629906,45
Baoshan,25.1211,99.169,0,2627000,45
Antananarivo,-18.9333,47.5167,1,2610000,134
Huludao,40.7094,120.8378,0,2623541,45
Munich,48.1375,11.575,0,2606021,84
Yanjiang,30.1256,104.6397,0,2593843,45
Santo domingo,18.4764,-69.8933,1,2581827,63
Sanming,26.2658,117.6302,0,2580000,45
Tashkent,41.3111,69.2797,1,2571668,244
Longba,33.535,105.349,0,2567718,45
Yangjiang,21.8556,111.9627,0,2555600,45
Jiamusi,46.8081,130.3653,0,2552097,45
Luohe,33.583,114.0109,0,2544266,45
Lincang,23.8864,100.0871,0,2536000,45
Medellin,6.2308,-75.5906,0,2529403,47
Medellin,6.2308,-75.5906,0,2529403,48
Xuanzhou,30.9475,118.7518,0,2532938,45
Yunfu,22.9242,112.0353,0,2526900,45
Shaoxing,30.0,120.5833,0,2521964,45
Yantai,37.3997,121.2664,0,2511053,45
Huizhou,23.1115,114.4152,0,2509243,45
Lishui,28.45,119.9167,0,2507396,45
Mirzapur,25.146,82.569,0,2496970,104
Hamburg,53.55,10.0,0,2484800,84
Guangyuan,32.4353,105.8398,0,2484122,45
Cali,3.4206,-76.5222,0,2471474,47
Cali,3.4206,-76.5222,0,2471474,48
Lusaka,-15.4167,28.2833,1,2467563,253
Huangshi,30.2018,115.0326,0,2471700,45
Xining,36.6239,101.7787,0,2467965,45
Ouagadougou,12.3686,-1.5275,1,2453496,34
Daegu,35.8717,128.6017,0,2461002,120
Fortaleza,-3.7275,-38.5275,0,2452185,31
Yaounde,3.8667,11.5167,1,2440462,38
Jilin,43.8519,126.5481,0,2396000,45
Dandong,40.1167,124.3833,0,2444697,45
Zhuhai,22.2769,113.5678,0,2439585,45
Lianshan,40.7523,120.828,0,2426000,45
Yingkou,40.6653,122.2297,0,2428534,45
Antalya,36.8874,30.7075,0,2426356,232
Nagpur,21.1497,79.0806,0,2405665,104
Queens,40.7498,-73.7976,0,2405464,240
Accra,5.55,-0.2,1,2388000,85
Bekasi,-6.2349,106.9923,0,2381053,105
Ghaziabad,28.67,77.42,0,2375820,104
Yuxi,24.3495,102.5432,0,2386000,45
Luoyang,34.6587,112.4245,0,2372571,45
Brisbane,-27.4678,153.0281,0,2360241,13
Anshun,26.2456,105.934,0,2353100,45
Depok,-6.394,106.8225,0,2330333,105
Shangzhou,33.868,109.9244,0,2341742,45
Huainan,32.4831,117.0164,0,2333896,45
Colombo,6.9344,79.8428,1,2323826,216
Kuaidamao,41.7302,125.9471,0,2324439,45
Baku,40.3667,49.8352,1,2300500,15
Fukuoka,33.5833,130.4,0,2286000,113
Yan'an,36.5952,109.4863,0,2282581,45
Jincheng,35.4906,112.8483,0,2279146,45
Vancouver,49.25,-123.1,0,2264823,39
Nantong,31.9829,120.8873,0,2261382,45
Tangerang,-6.1783,106.6319,0,2237006,105
Caracas,10.4806,-66.9036,1,2245744,246
Caracas,10.4806,-66.9036,1,2245744,247
Sanmenxia,34.7736,111.195,0,2234018,45
Laibin,23.7333,109.2333,0,2233900,45
Konya,37.8667,32.4833,0,2232374,232
Manaus,-3.1,-60.0167,0,2219580,31
Esfahan,32.6447,51.6675,0,2219343,106
Qinbaling,35.7278,107.64,0,2211191,45
Baltimore,39.3051,-76.6144,0,2205092,240
Ma'anshan,31.6858,118.5101,0,2202899,45
Shengli,37.45,118.4667,0,2193518,45
Gaoping,30.7824,106.1281,0,2174000,45
Taizhou,28.6583,121.4221,0,2162461,45
Harare,-17.8292,31.0522,1,2150000,204
Kowloon,22.3167,114.1833,0,2108419,101
Las vegas,36.2333,-115.2654,0,2150373,240
Havana,23.1367,-82.3589,1,2141652,56
Havana,23.1367,-82.3589,1,2141652,57
Perth,-31.9559,115.8606,0,2141834,13
Phnom penh,11.5694,104.9211,1,2129371,37
Puning,23.2993,116.1586,0,2118200,45
Huaibei,33.9562,116.789,0,2114276,45
Qingyang,24.8141,118.5792,0,2111000,45
Haiphong,20.8651,106.6838,0,2103500,248
Chongzuo,22.4167,107.3667,0,2099400,45
Rawalpindi,33.6,73.0333,0,2098231,174
Yushan,31.3867,120.9766,0,2092496,45
St. louis,38.6359,-90.2451,0,2092481,240
Kumasi,6.6667,-1.6167,0,2069350,85
Vadodara,22.3,73.2,0,2065771,104
Hezhou,24.4164,111.5478,0,2072600,45
Pingliang,35.5412,106.6819,0,2068033,45
Portland,45.5371,-122.65,0,2036875,240
Vishakhapatnam,17.7042,83.2978,0,2035922,104
Gujranwala,32.1567,74.19,0,2027001,174
Baicheng,45.6148,122.832,0,2032356,45
Gaziantep,37.0628,37.3792,0,2028563,232
Fushun,41.8708,123.8917,0,2024000,45
Riverside,33.9381,-117.3949,0,2022285,240
Bamako,12.6458,-7.9922,1,2009109,138
Quito,-0.22,-78.5125,1,2011388,64
Minsk,53.9,27.5667,1,2009786,20
Tijuana,32.525,-117.0333,0,2002000,145
Tijuana,32.525,-117.0333,0,2002000,146
Bamenda,5.9614,10.1517,0,2000000,38
Boosaaso,11.2886,49.1819,0,2000000,211
Indore,22.7167,75.8472,0,1994397,104
Sanliurfa,37.1583,38.7917,0,1985753,232
Vienna,48.2083,16.3725,1,1973403,14
Karaj,35.8272,50.9489,0,1973470,106
Kananga,-5.897,22.4488,0,1971704,51
Peshawar,34.0144,71.5675,0,1970042,174
Sapporo,43.0667,141.35,0,1961690,113
Ecatepec,19.6097,-99.06,0,1929926,145
Ecatepec,19.6097,-99.06,0,1929926,146
Pingxiang,27.6333,113.85,0,1933200,45
Orlando,28.4773,-81.337,0,1927699,240
Aleppo,36.2,37.16,0,1916781,223
Sacramento,38.5677,-121.4685,0,1924167,240
Almaty,43.2775,76.8958,0,1916822,116
San juan,18.3985,-66.061,1,1915105,185
San antonio,29.4632,-98.5238,0,1910785,240
Yinchuan,38.4795,106.2254,0,1901793,45
Thane,19.1972,72.9722,0,1886941,104
Santos,-23.9369,-46.325,0,1897551,31
Blantyre,-15.7861,35.0058,0,1895973,135
Bucharest,44.4325,26.1039,1,1883425,187
Curitiba,-25.4297,-49.2711,0,1879355,31
Multan,30.1978,71.4697,0,1871843,174
Tainan,22.9833,120.1833,0,1874686,224
Xiping,40.082,113.2981,0,1873000,45
Port harcourt,4.8242,7.0336,0,1865000,165
Warsaw,52.23,21.0111,1,1860281,183
Jixi,45.2937,130.965,0,1862165,45
Saidu sharif,34.75,72.3572,0,1860310,174
Liaoyang,41.2643,123.1772,0,1858768,45
Beihai,21.4667,109.1,0,1853227,45
Meru,0.05,37.65,0,1833000,117
Brazzaville,-4.2694,15.2714,1,1827000,50
Fuxin,42.0127,121.6486,0,1819339,45
Wuwei,37.9278,102.6329,0,1815059,45
Mersin,36.8,34.6333,0,1814468,232
Bhopal,23.25,77.4167,0,1798218,104
Lubumbashi,-11.6647,27.4794,0,1786397,51
Denpasar,-8.65,115.2167,0,1779122,105
Davao,7.0667,125.6,0,1776949,181
Shuyangzha,34.1299,118.7734,0,1770000,45
Adana,37.0,35.3213,0,1765981,232
Damascus,33.5131,36.2919,1,1754000,223
Brussels,50.8467,4.3525,1,1743000,21
Hyderabad city,25.3792,68.3683,0,1732693,174
Diyarbakir,37.91,40.24,0,1732396,232
San jose,37.3012,-121.848,0,1729879,240
Chinchvad,18.6186,73.8037,0,1729320,104
Montevideo,-34.8836,-56.1819,1,1719453,241
Montevideo,-34.8836,-56.1819,1,1719453,242
Montevideo,-34.8836,-56.1819,1,1719453,243
Pittsburgh,40.4397,-79.9763,0,1720279,240
Shuozhou,39.3408,112.4292,0,1714857,45
Cincinnati,39.1413,-84.506,0,1712287,240
Benxi,41.292,123.761,0,1709538,45
Baiyin,36.5448,104.1766,0,1708751,45
Mosul,36.34,43.13,0,1694000,107
Manhattan,40.7834,-73.9662,0,1694263,240
Caloocan city,14.65,120.97,0,1661584,181
Kampala,0.3136,32.5811,1,1680600,236
Patna,25.6,85.1,0,1684222,104
Tegucigalpa,14.1,-87.2167,1,1682725,100
Cleveland,41.4764,-81.6805,0,1683059,240
Sanzhou,30.82,108.4,0,1680000,45
Changshu,31.65,120.7333,0,1677050,45
Mecca,21.4225,39.8233,0,1675368,170
Heihe,50.2458,127.4886,0,1673899,45
Jingdezhen,29.2942,117.2036,0,1673200,45
Conakry,9.5092,-13.7122,1,1667864,93
Conakry,9.5092,-13.7122,1,1667864,94
Recife,-8.05,-34.9,0,1653461,31
Indianapolis,39.7771,-86.1458,0,1659305,240
Austin,30.3005,-97.7522,0,1659251,240
Sangereng,-6.2889,106.7181,0,1644899,105
Kansas city,39.1238,-94.5541,0,1644497,240
Zhongli,24.965,121.2168,0,1632616,224
Novosibirsk,55.0333,82.9167,0,1625631,188
Bilaspur,22.09,82.15,0,1625502,104
Semarang,-6.9667,110.4167,0,1621384,105
Ludhiana,30.91,75.85,0,1618879,104
Narayanganj,23.62,90.5,0,1572386,18
Stockholm,59.3294,18.0686,1,1611776,219
Chengtangcun,35.0833,117.15,0,1603659,45
Agra,27.18,78.02,0,1585704,104
Balandougou,13.3558,-9.5517,0,1596882,138
Agwar,27.18,78.02,0,1585705,104
Leon de los aldama,21.1167,-101.6833,0,1579803,145
Leon de los aldama,21.1167,-101.6833,0,1579803,146
Yopougon,5.3167,-4.0667,0,1571065,54
Puebla,19.0333,-98.1833,0,1576259,145
Puebla,19.0333,-98.1833,0,1576259,146
Madurai,9.9252,78.1198,0,1561129,104
Hebi,35.7497,114.2887,0,1569208,45
Cordoba,-31.4167,-64.1833,0,1565112,10
Shiraz,29.61,52.5425,0,1565572,106
Jamshedpur,22.7925,86.1842,0,1558000,104
Tabriz,38.0814,46.3006,0,1558693,106
Huzhou,30.8925,120.0875,0,1558826,45
Columbus,39.9862,-82.9855,0,1556848,240
Sofia,42.7,23.33,1,1547779,33
Kawasaki,35.5167,139.7,0,1539522,113
San jose,9.9325,-84.08,1,1543000,53
Aba,5.1167,7.3667,0,1530000,165
Palembang,-2.9861,104.7556,0,1535952,105
Zhangjiajie,29.1255,110.4844,0,1537900,45
Kobe,34.69,135.1956,0,1521707,113
Jiaxing,30.7522,120.75,0,1518654,45
Charlotte,35.2083,-80.8303,0,1516107,240
Guiping,23.4,110.0833,0,1511011,45
Lianjiang,21.6146,110.2794,0,1509400,45
Ximeicun,24.9633,118.3811,0,1508000,45
Jianguang,28.1958,115.7833,0,1507402,45
Yucheng,29.9888,103.0007,0,1507258,45
Panama city,8.9833,-79.5167,1,1500189,176
Panama city,8.9833,-79.5167,1,1500189,177
Xushan,30.1697,121.2665,0,1502000,45
Belem,-1.4558,-48.5039,0,1499641,31
Virginia beach,36.7335,-76.0435,0,1500764,240
Leizhou,20.9147,110.0806,0,1494700,45
Gwangju,35.1653,126.8486,0,1490092,120
Nasik,20.0,73.78,0,1486053,104
Porto alegre,-30.0331,-51.23,0,1484941,31
Valencia,10.1667,-68.0,0,1484430,246
Valencia,10.1667,-68.0,0,1484430,247
Onitsha,6.1667,6.7833,0,1483000,165
Abu dhabi,24.4667,54.3667,1,1483000,238
Daejeon,36.351,127.385,0,1475221,120
Zapopan,20.7167,-103.4,0,1476491,145
Zapopan,20.7167,-103.4,0,1476491,146
Bronx,40.8501,-73.8662,0,1472654,240
Yekaterinburg,56.8356,60.6128,0,1468833,188
Huazhou,32.6832,112.079,0,1468061,45
Kyoto,35.0117,135.7683,0,1464890,113
Jinhua,29.1046,119.6494,0,1463990,45
Amsterdam,52.3728,4.8936,1,1459402,159
Shuangyashan,46.6388,131.1545,0,1462626,45
Pizhou,34.3422,118.0097,0,1458038,45
El kelaa des srarhna,32.0481,-7.4083,0,1450021,152
Dakar,14.6928,-17.4467,1,1438725,199
Kharkiv,49.9925,36.2311,0,1446107,237
Yangshe,31.8775,120.5512,0,1432044,45
Guyuan,36.008,106.2782,0,1426000,45
Rui'an,27.778,120.6526,0,1424667,45
Khulna,22.8167,89.55,0,1400689,18
Muscat,23.6139,58.5922,1,1421409,173
Wenling,28.3797,121.3718,0,1416199,45
Gaozhou,21.9135,110.8481,0,1414100,45
Faridabad,28.4167,77.3,0,1404653,104
Chizhou,30.6583,117.4849,0,1402518,45
Tel aviv-yafo,32.08,34.78,0,1388400,110
Ulaanbaatar,47.9203,106.9172,1,1396288,149
Goiania,-16.6667,-49.25,0,1393575,31
Fuqing,25.7232,119.3735,0,1390487,45
Kayseri,38.7225,35.4875,0,1389680,232
Wuzhong,37.9874,106.1919,0,1382713,45
Belgrade,44.82,20.46,1,1378682,200
Pingdu,36.7833,119.9556,0,1378900,45
Milan,45.4669,9.19,0,1366180,111
Aurangabad,19.88,75.32,0,1371330,104
Copenhagen,55.6761,12.5683,1,1366301,60
Yangquan,37.8576,113.5762,0,1368502,45
Yutan,28.3147,112.554,0,1368117,45
Huangshan,29.7132,118.3151,0,1358980,45
Auckland,-36.8406,174.74,0,1346091,161
Makassar,-5.1619,119.4362,0,1338663,105
Santiago,19.4572,-70.6889,0,1343423,63
Milwaukee,43.0642,-87.9675,0,1340981,240
Rajkot,22.3,70.7833,0,1335397,104
Prague,50.0875,14.4214,1,1335084,59
Samsun,41.2903,36.3336,0,1335716,232
Liangshi,27.2578,111.7351,0,1335900,45
Barranquilla,10.9833,-74.8019,0,1326588,47
Barranquilla,10.9833,-74.8019,0,1326588,48
Saitama,35.8614,139.6456,0,1325843,113
Guarulhos,-23.4628,-46.5328,0,1324781,31
Al basrah,30.515,47.81,0,1326564,107
Mandalay,21.9831,96.0844,0,1319452,154
Juarez,31.7386,-106.487,0,1321004,145
Juarez,31.7386,-106.487,0,1321004,146
Xintai,35.91,117.78,0,1315942,45
Wusong,30.9333,117.7667,0,1311726,45
Meerut,28.98,77.71,0,1305429,104
Yushu,44.8249,126.5451,0,1304436,45
Rongcheng,26.2312,104.0966,0,1302891,45
Huazhou,21.654,110.6294,0,1302100,45
Adelaide,-34.9275,138.6,0,1295714,13
Baishan,41.9377,126.4179,0,1296127,45
Dayan,26.8808,100.2208,0,1296000,45
Haicheng,40.8523,122.7474,0,1293877,45
Tripoli,32.8872,13.1914,1,1293016,130
Jiangyin,31.9087,120.2653,0,1285785,45
Yicheng,31.3697,119.8239,0,1285785,45
Huaiyin,33.5819,119.028,0,1264000,45
Porto,41.1621,-8.622,0,1278210,184
Cacuaco,-8.8053,13.2444,0,1279488,7
Soweto,-26.2678,27.8585,0,1271628,212
Rosario,-32.9575,-60.6394,0,1276000,10
Canagatan,18.0,121.8,0,1273219,181
Helsinki,60.1708,24.9375,1,1268296,76
Jabalpur,23.1667,79.9333,0,1267564,104
Providence,41.823,-71.4187,0,1270149,240
Rucheng,32.3852,120.5634,0,1267066,45
Nizhniy novgorod,56.3269,44.0075,0,1264075,188
Ahvaz,31.3203,48.6692,0,1261042,106
Jepara,-6.5333,110.6667,0,1257912,105
Shaoyang,32.9387,119.8404,0,1253548,45
Comayaguela,14.0981,-87.2097,0,1250000,100
Laiwu,36.1833,117.6667,0,1248636,45
Sharjah,25.3575,55.3908,0,1247749,238
Kalamboli,19.2333,73.1333,0,1246381,104
Jingling,30.6667,113.1667,0,1247400,45
Kazan,55.7964,49.1089,0,1243500,188
Suwon,37.2667,127.0167,0,1234300,120
Yongcheng,33.9317,116.4459,0,1240382,45
Sumedang,-6.84,107.9208,0,1240000,105
Calgary,51.05,-114.0667,0,1239220,39
Can tho,10.0333,105.7833,0,1237300,248
Yiwu,29.3081,120.0698,0,1234015,45
Bagam,1.0833,104.0333,0,1230097,105
Beidao,34.602,105.918,0,1225000,45
Vasai,19.47,72.8,0,1222390,104
Xiangshui,26.5964,104.8314,0,1221000,45
Jacksonville,30.3322,-81.6749,0,1220191,240
Akcaabat,41.0167,39.55,0,1215351,232
Campinas,-22.9058,-47.0608,0,1213792,31
Dadukou,26.5849,101.7149,0,1214121,45
Mombasa,-4.05,39.6667,0,1208333,117
Lingcheng,22.7,110.35,0,1211637,45
Najafgarh,28.6092,76.9798,0,1203180,104
Vila velha,3.2167,-51.2167,0,1209091,31
Gazipura,23.9889,90.375,0,1199215,18
Chelyabinsk,55.15,61.4,0,1202371,188
Varanasi,25.3189,83.0128,0,1198491,104
Xinyu,27.795,114.9242,0,1202499,45
Qom,34.64,50.8764,0,1201158,106
Hargeysa,9.5631,44.0675,0,1200000,211
Zhangye,38.9355,100.4553,0,1199515,45
Hiroshima,34.3914,132.4519,0,1198021,113
Maiduguri,11.8333,13.15,0,1197497,165
Chiang mai,18.7953,98.9986,0,1198000,226
Doha,25.2867,51.5333,1,1186023,186
Maputo,-25.9667,32.5833,1,1191613,153
Mbandaka,0.0478,18.2558,0,1187837,51
Pikine,14.75,-17.4,0,1170791,199
Medina,24.47,39.61,0,1180770,170
Srinagar,34.09,74.79,0,1180570,104
Omsk,54.9667,73.3833,0,1178391,188
Dublin,53.35,-6.2603,1,1173179,108
Liaoyuan,42.8976,125.1381,0,1176239,45
Cilacap,-7.7167,109.017,0,1174964,105
Yingtan,28.2333,117.0,0,1175000,45
Bandar lampung,-5.45,105.2667,0,1166761,105
Samara,53.2028,50.1408,0,1169719,188
Guankou,28.1417,113.625,0,1168056,45
Ulsan,35.55,129.3167,0,1166033,120
Dhanbad,23.7998,86.4305,0,1162472,104
Dingzhou,38.5158,114.9845,0,1165182,45
Lianyuan,27.6961,111.6659,0,1162928,45
Rongcheng,29.8239,112.9019,0,1162770,45
Kaiyuan,36.0656,113.8153,0,1160000,45
Nay pyi taw,19.7475,96.115,1,1160242,154
Zhuji,29.7169,120.2314,0,1157938,45
Kigali,-1.9536,30.0606,1,1156663,189
Bukavu,-2.5,28.8667,0,1133000,51
Leiyang,26.4179,112.8457,0,1151554,45
Bafoussam,5.4667,10.4167,0,1146000,38
Yichun,47.7235,128.8893,0,1148126,45
Benin city,6.3333,5.6222,0,1147188,165
Rostov,47.2333,39.7,0,1137704,188
Xiantao,30.3833,113.4,0,1140100,45
Amritsar,31.64,74.86,0,1132383,104
Callao,-12.0333,-77.1333,0,1129854,180
Salt lake city,40.7776,-111.9311,0,1135344,240
Aligarh,27.88,78.08,0,1131160,104
Shagamu,6.8333,3.65,0,1132270,165
Yingchuan,34.1511,113.4733,0,1131896,45
Ciudad nezahualcoyotl,19.4081,-99.0186,0,1109363,145
Ciudad nezahualcoyotl,19.4081,-99.0186,0,1109363,146
Tbilisi,41.7225,44.7925,1,1118035,83
Guwahati,26.1722,91.7458,0,1116267,104
Ufa,54.7261,55.9475,0,1115560,188
Fes,34.0433,-5.0033,0,1112072,152
Sao luis,-2.5283,-44.3044,0,1108975,31
Bien hoa,10.95,106.8167,0,1104000,248
!!sevilla,37.24,-5.99,0,1100000,215
N'djamena,12.11,15.05,1,1092066,42
Mexicali,32.6633,-115.4678,0,1102342,145
Mexicali,32.6633,-115.4678,0,1102342,146
Nezahualcoyotl,19.4006,-99.0148,0,1077208,145
Nezahualcoyotl,19.4006,-99.0148,0,1077208,146
Ikare,7.5167,5.75,0,1099931,165
Nashville,36.1715,-86.7842,0,1098486,240
Tamale,9.4075,-0.8533,0,1095808,85
Xibeijie,39.737,98.5049,0,1095947,45
Yuyao,30.0372,121.1546,0,1095000,45
Haora,22.58,88.3294,0,1077075,104
Hanchuan,30.652,113.8274,0,1092700,45
Gongzhuling,43.5036,124.8088,0,1092692,45
Krasnoyarsk,56.0089,92.8719,0,1083865,188
Cologne,50.9364,6.9528,0,1083498,84
Bujumbura,-3.3833,29.3667,1,1075000,35
Bishkek,42.8747,74.6122,1,1074075,122
Zhufeng,36.0,119.4167,0,1081960,45
Sao goncalo,-22.8269,-43.0539,0,1077687,31
Yerevan,40.1814,44.5144,1,1075800,11
Ezhou,30.3972,114.8842,0,1079353,45
Nur-sultan,51.1472,71.4222,1,1078362,116
Tongjin,37.2333,127.2,0,1076369,120
Nouakchott,18.0858,-15.9785,1,1077169,142
Xiashi,30.5333,120.6833,0,1076199,45
Ranchi,23.36,85.33,0,1073440,104
Taixing,32.1724,120.0142,0,1073921,45
Vereeniging,-26.6736,27.9319,0,1074000,212
Gwalior,26.2215,78.178,0,1069276,104
Zhongwei,37.5139,105.1884,0,1067336,45
Goyang,37.65,126.8,0,1061929,120
Oslo,59.9133,10.7389,1,1064235,172
Vijayawada,16.5193,80.6305,0,1048240,104
Chandigarh,30.75,76.78,0,1055450,104
Edmonton,53.5344,-113.4903,0,1062643,39
Sendai,38.2682,140.8694,0,1061177,113
Raleigh,35.8324,-78.6429,0,1062018,240
Mizhou,35.99,119.3801,0,1060000,45
Tunis,36.8064,10.1817,1,1056247,231
Xishan,27.6609,113.4946,0,1060000,45
Barquisimeto,10.0678,-69.3467,0,1059092,246
Barquisimeto,10.0678,-69.3467,0,1059092,247
Hegang,47.3139,130.2775,0,1058665,45
Voronezh,51.6717,39.2106,0,1050602,188
Perm,58.0139,56.2489,0,1048005,188
Changwon,35.2708,128.6631,0,1046054,120
Fangchenggang,21.6,108.3,0,1046068,45
Shouguang,36.8833,118.7333,0,1039205,45
Bogor,-6.5966,106.7972,0,1030720,105
Cartagena,10.4,-75.5,0,1036412,47
Cartagena,10.4,-75.5,0,1036412,48
Matola,-25.9667,32.4667,0,1032197,153
Jodhpur,26.28,73.02,0,1033918,104
Memphis,35.1087,-89.9663,0,1034498,240
Ogbomoso,8.1333,4.25,0,1032000,165
Rangapukur,25.56,89.25,0,1031388,18
Managua,12.1544,-86.2738,1,1028808,162
Managua,12.1544,-86.2738,1,1028808,163
Sanya,18.2533,109.5036,0,1031396,45
Shymkent,42.3167,69.5958,0,1028673,116
Wutong,30.6326,120.5474,0,1029754,45
Niamey,13.515,2.1175,1,1026848,164
Shubra al khaymah,30.1286,31.2422,0,1025569,65
Linhai,28.8523,121.1409,0,1028813,45
Denizli,37.7667,29.0833,0,1027782,232
Maceio,-9.6658,-35.735,0,1025360,31
Monrovia,6.3133,-10.8014,1,1021762,129
Wafangdian,39.6271,121.9972,0,1024876,45
Zhongxiang,31.169,112.5853,0,1022514,45
Louisville,38.1663,-85.6485,0,1022630,240
Odesa,46.4775,30.7326,0,1017699,237
Thu duc,10.8266,106.7609,0,1013795,248
Volgograd,48.7086,44.5147,0,1015586,188
Islamabad,33.6931,73.0639,1,1014825,174
Port-au-prince,18.5333,-72.3333,1,987310,97
Port-au-prince,18.5333,-72.3333,1,987310,98
Xinyi,22.3559,110.9369,0,1013900,45
Raipur,21.25,81.63,0,1010087,104
Arequipa,-16.4,-71.5333,0,1008290,180
Richmond,37.5295,-77.4756,0,1008069,240
Zaoyang,32.1287,112.7581,0,1004741,45
Buffalo,42.9018,-78.8487,0,1004655,240
Shuizhai,33.4433,114.8994,0,1003698,45
Xingyi,25.091,104.9011,0,1004132,45
Kota,25.18,75.83,0,1001694,104
Quetta,30.1833,67.0,0,1001205,174
Kathmandu,27.7172,85.324,1,975453,158
Ottawa,45.4247,-75.695,1,989567,39
Lilongwe,-13.9833,33.7833,1,989318,135
Asmara,15.3228,38.925,1,963000,69
Freetown,8.4844,-13.2344,1,951000,202
Freetown,8.4844,-13.2344,1,951000,203
Vientiane,17.9667,102.6,1,948487,123
Jerusalem,31.7784,35.2066,1,919438,110
Riga,56.9489,24.1064,1,920643,124
Bangui,4.3733,18.5628,1,889231,41
Dushanbe,38.5367,68.78,1,863400,225
Lome,6.1319,1.2228,1,837437,228
Ashgabat,37.95,58.3833,1,828100,233
Zagreb,45.8167,15.9833,1,809268,55
Libreville,0.3903,9.4542,1,797003,81
Cotonou,6.3667,2.4333,1,762000,23
Pretoria,-25.7461,28.1881,1,741651,212
Vilnius,54.6872,25.28,1,708203,132
Winnipeg,49.8844,-97.1464,0,705244,39
Quebec city,46.8139,-71.2081,0,705103,39
Port moresby,-9.4789,147.1494,1,700000,178
Skopje,41.9961,21.4317,1,640000,169
Djibouti,11.5883,43.145,1,603900,61
Kingston,17.9714,-76.7931,1,580000,112
Rabat,34.0209,-6.8416,1,572717,152
San salvador,13.6989,-89.1914,1,567698,66
San salvador,13.6989,-89.1914,1,567698,67
The hague,52.08,4.31,1,548320,159
Asuncion,-25.3,-57.6333,1,524190,179
Juba,4.85,31.6,1,525953,214
Maseru,-29.31,27.48,1,519186,126
Maseru,-29.31,27.48,1,519186,127
Maseru,-29.31,27.48,1,519186,128
Bissau,11.85,-15.5667,1,492004,95
Valletta,35.8983,14.5125,1,480134,139
Bratislava,48.1439,17.1097,1,475503,207
Bratislava,48.1439,17.1097,1,475503,208
Kitchener,43.4186,-80.4728,0,470015,39
Manama,26.225,50.5775,1,436000,17
Tallinn,59.4372,24.7453,1,438341,70
Beirut,33.8869,35.5131,1,361366,125
Cape town,-33.9253,18.4239,1,433688,212
Tirana,41.3289,19.8178,1,418495,2
Sarajevo,43.8564,18.4131,1,419957,29
Wellington,-41.2889,174.7772,1,418500,161
Banjul,13.4531,-16.5775,1,413397,82
Halifax,44.6475,-63.5906,0,403131,39
Canberra,-35.2931,149.1269,1,381488,13
Yamoussoukro,6.8161,-5.2742,1,355573,54
Victoria,48.4283,-123.3647,0,335696,39
Nicosia,35.1725,33.365,1,330000,6
Windhoek,-22.57,17.0836,1,322500,155
Windhoek,-22.57,17.0836,1,322500,156
Saint-denis,-20.8789,55.4481,1,315080,168
Porto-novo,6.4972,2.605,1,300000,23
Sucre,-19.0475,-65.26,1,300000,27
Sucre,-19.0475,-65.26,1,300000,28
Ljubljana,46.0514,14.5061,1,286745,209
Nassau,25.0781,-77.3386,1,274400,16
Bloemfontein,-29.1167,26.2167,1,256185,212
Fort-de-france,14.6,-61.0667,1,253995,141
New delhi,28.6139,77.209,1,249998,104
Gaborone,-24.6581,25.9122,1,231626,30
Paramaribo,5.8522,-55.2039,1,223757,218
Dili,-8.5536,125.5783,1,222323,227
Georgetown,6.8058,-58.1508,1,200500,96
Gibraltar,36.1333,-5.35,1,187083,86
Malabo,3.75,8.7833,1,187302,68
Suva,-18.1416,178.4419,1,185913,75
Noumea,-22.2758,166.458,1,182341,160
Male,4.1753,73.5089,1,133019,137
Port louis,-20.1644,57.5042,1,149194,143
Podgorica,42.4413,19.2629,1,150977,150
Willemstad,12.108,-68.935,1,150000,58
Bern,46.9481,7.4475,1,133883,220
Bern,46.9481,7.4475,1,133883,221
Bern,46.9481,7.4475,1,133883,222
Gitega,-3.4283,29.925,1,135467,35
Reykjavik,64.1467,-21.94,1,135688,103
Luxembourg,49.6117,6.1319,1,132780,133
Papeete,-17.5334,-149.5667,1,131695,79
Praia,14.918,-23.509,1,127832,36
Sri jayewardenepura kotte,6.9108,79.8878,1,115826,216
Bridgetown,13.0975,-59.6167,1,110000,19
Moroni,-11.699,43.256,1,111329,49
Thimphu,27.4722,89.6361,1,104000,25
Thimphu,27.4722,89.6361,1,104000,26
Mbabane,-26.3208,31.1617,1,94874,71
Honiara,-9.4319,159.9556,1,84520,210
Port of spain,10.6667,-61.5167,1,81142,230
Castries,14.0167,-60.9833,1,70000,192
Putrajaya,2.93,101.69,1,67964,136
Cayenne,4.933,-52.33,1,61550,78
Sao tome,0.3361,6.7306,1,56166,198
Port-vila,-17.7333,168.3167,1,51437,245
Bandar seri begawan,4.8903,114.9422,1,50000,32
Monaco,43.7333,7.4167,1,36371,148
Apia,-13.8333,-171.75,1,37708,196
Tarawa,1.3382,173.0176,1,28802,118
Oranjestad,12.5186,-70.0358,1,34980,12
Saint helier,49.1858,-2.11,1,33522,114
Mamoudzou,-12.7794,45.2272,1,32057,144
Majuro,7.0833,171.3833,1,30000,140
Douglas,54.145,-4.482,1,27938,109
George town,19.2866,-81.3744,1,27704,40
Victoria,-4.6167,55.45,1,26450,201
Kingstown,13.1578,-61.225,1,25000,195
Andorra la vella,42.5,1.5,1,22615,5
Saint john's,17.1167,-61.85,1,22219,9
Nuku`alofa,-21.1333,-175.2,1,23221,229
Nuuk,64.1814,-51.6942,1,18326,88
Belmopan,17.2514,-88.7669,1,17222,22
Roseau,15.3014,-61.3883,1,16582,62
Basseterre,17.3,-62.7333,1,13220,191
Torshavn,62.0,-6.7833,1,13326,74
Road town,18.4167,-64.6167,1,12603,249
Pago pago,-14.274,-170.7046,1,12576,4
Grand turk,21.4664,-71.136,1,5801,234
Marigot,18.0706,-63.0847,1,5700,193
Palikir,6.9178,158.185,1,6227,147
Funafuti,-8.5167,179.2,1,6025,235
Vaduz,47.141,9.521,1,5668,131
Lobamba,-26.4465,31.2064,1,5800,71
Avarua??,-21.207,-159.771,1,5445,52
Saint george's,12.05,-61.75,1,4315,89
San marino,43.9346,12.4473,1,4040,197
Tifariti,26.158,-10.567,0,3000,152
Philipsburg,18.0237,-63.0458,1,1894,206
Capitol hill,15.2137,145.7546,1,2500,171
Stanley,-51.7,-57.85,1,2213,73
Hamilton,32.2942,-64.7839,1,854,24
Vatican city,41.904,12.453,1,825,99
Alofi,-19.056,-169.921,1,1611,166
Basse-terre,16.0104,-61.7055,1,307,90
Hagta,13.4745,144.7504,1,1051,91
Brades,16.7928,-62.2106,1,391,151
Yaren,-0.5477,166.9209,1,\N,157
Gustavia,17.8958,-62.8508,1,\N,190
Ngerulmud,7.5006,134.6242,1,271,175
Saint-pierre,46.7811,-56.1764,1,\N,194
The valley,18.2167,-63.05,1,\N,8
Mata-utu,-13.2825,-176.1736,1,\N,251
Kingston,-29.0569,167.9617,1,\N,167
Adamstown,-25.0667,-130.0833,1,\N,182
Flying fish cove,-10.4167,105.7167,1,\N,46
King edward point,-54.2833,-36.5,1,\N,213
Bareilly,28.364,79.415,0,1000000,104
Quang ha,15.9333,108.2667,0,1000000,248
Domaa-ahenkro,7.2833,-2.8833,0,1000000,85
Oklahoma city,35.4676,-97.5136,0,994284,240
Xingcheng,24.1681,115.6669,0,993000,45
Dongtai,32.8534,120.3037,0,990306,45
Yingcheng,24.1878,113.4042,0,986400,45
Chiba,35.6073,140.1064,0,981738,113
Al mijlad,11.0339,27.74,0,985000,217
Pekanbaru,0.5092,101.4453,0,983356,105
Luocheng,22.7645,111.5745,0,984100,45
Dnipro,48.4675,35.04,0,980948,237
Danyang,31.9948,119.575,0,980662,45
Gode,5.9527,43.5516,0,980782,72
Natal,-6.9838,-60.2699,0,980588,31
Nada,19.5,109.5833,0,977700,45
Zamboanga city,6.9042,122.0761,0,977234,181
Kirkuk,35.4667,44.3167,0,975000,107
Bridgeport,41.1918,-73.1954,0,975078,240
Naples,40.8333,14.25,0,966144,111
Wuchuan,21.4283,110.7749,0,972400,45
Huilong,31.8131,121.6574,0,972525,45
Morelia,19.7683,-101.1894,0,962555,145
Morelia,19.7683,-101.1894,0,962555,146
Malaga,36.7194,-4.42,0,967250,215
Cebu city,10.32,123.75,0,964169,181
Al mansurah,31.05,31.3833,0,960423,65
Coimbatore,11.0168,76.9558,0,959823,104
Santo domingo este,18.4855,-69.8734,0,948855,63
Setagaya,35.6466,139.6532,0,940509,113
Songnam,37.4333,127.15,0,948757,120
Taishan,22.2486,112.785,0,953900,45
Teresina,-5.0949,-42.8042,0,953172,31
Solapur,17.68,75.92,0,951558,104
Tangier,35.7767,-5.8039,0,947952,152
Kermanshah,34.3142,47.065,0,952285,106
Krasnodar,45.0333,38.9667,0,948827,188
Baidoa,3.1167,43.65,0,950000,211
Gaalkacyo,6.7697,47.4308,0,950000,211
Anqiu,36.3619,119.1072,0,947723,45
Feicheng,36.186,116.772,0,946627,45
Seberang jaya,5.4,100.4667,0,946092,136
El alto,-16.5047,-68.1633,0,943000,27
El alto,-16.5047,-68.1633,0,943000,28
Kitakyushu,33.8833,130.8833,0,935084,113
Meishan,34.1736,112.839,0,936000,45
Khartoum north,15.6333,32.6333,0,936349,217
Kisangani,0.5153,25.1911,0,935977,51
Aguascalientes,21.876,-102.296,0,934424,145
Aguascalientes,21.876,-102.296,0,934424,146
Marrakech,31.63,-8.0089,0,928850,152
Donetsk,48.0028,37.8053,0,929063,237
Trujillo,-8.112,-79.0288,0,919899,180
New orleans,30.0687,-89.9288,0,925443,240
Taihe,30.8706,105.3784,0,924531,45
Trichinopoly,10.7903,78.7047,0,916857,104
Xin'an,34.3662,118.3369,0,920628,45
Taihecun,45.768,131.0063,0,920471,45
Kashgar,39.4681,75.9938,0,920000,45
Naucalpan de juarez,19.4753,-99.2378,0,913681,145
Naucalpan de juarez,19.4753,-99.2378,0,913681,146
Cankaya,39.9244,32.8856,0,914501,232
Santiago de cuba,20.0217,-75.8294,0,917340,56
Santiago de cuba,20.0217,-75.8294,0,917340,57
Owerri,5.4833,7.0333,0,908109,165
Padang,-0.95,100.3531,0,914970,105
Qingzhou,36.6967,118.4797,0,914047,45
Lichuan,30.2965,108.9378,0,913700,45
Santiago del estero,-27.7833,-64.2667,0,911506,10
Daye,30.1003,114.9699,0,909724,45
Hengzhou,22.6896,109.2674,0,908400,45
Fort worth,32.7817,-97.3474,0,908469,240
Hartford,41.7661,-72.6834,0,907046,240
Esenyurt,41.047,28.658,0,891120,232
Campo grande,-20.4839,-54.615,0,906092,31
Zhuanghe,39.6896,122.9664,0,905852,45
Bobo-dioulasso,11.1833,-4.2833,0,903887,34
Ad dammam,26.4333,50.1,0,903312,170
Quzhou,28.9545,118.8763,0,902767,45
Lhasa,29.6534,91.1719,0,902500,45
Jiaozhou,36.2481,119.9625,0,900500,45
Bunia,1.5667,30.25,0,900666,51
Taguig city,14.52,121.05,0,886722,181
Cancun,21.1606,-86.8475,0,888797,145
Cancun,21.1606,-86.8475,0,888797,146
Merida,20.97,-89.62,0,892363,145
Merida,20.97,-89.62,0,892363,146
Yangchun,22.1717,111.7846,0,891800,45
Dengtalu,36.1386,114.1066,0,887000,45
Moradabad,28.8389,78.7769,0,887871,104
Antipolo,14.5842,121.1763,0,887399,181
Abeokuta,7.1608,3.3483,0,888924,165
Bucheon,37.5,126.7833,0,867678,120
Zhoushan,29.9887,122.2049,0,882932,45
Tiruppur,11.1085,77.3411,0,877778,104
Natal,-5.7833,-35.2,0,877662,31
Chihuahua,28.6353,-106.0889,0,878062,145
Chihuahua,28.6353,-106.0889,0,878062,146
Klang,3.0333,101.45,0,878000,136
As sulaymaniyah,35.5572,45.4356,0,878146,107
Gurgaon,28.456,77.029,0,876824,104
Turin,45.0792,7.6761,0,870952,111
Tucson,32.1541,-110.8787,0,875284,240
Hai'an,32.532,120.4604,0,874334,45
Ar ramadi,33.4258,43.2992,0,874543,107
Laiyang,36.9758,120.7136,0,874127,45
Sale,34.0333,-6.8,0,850403,152
Jalandhar,31.2569,75.4432,0,873725,104
Marseille,43.2964,5.37,0,870731,77
Bucaramanga,7.1333,-73.0,0,870752,47
Bucaramanga,7.1333,-73.0,0,870752,48
Kaifeng chengguanzhen,34.8519,114.3481,0,872000,45
Ikeja,6.6186,3.3426,0,861300,165
Eskisehir,39.7767,30.5206,0,871187,232
Saltillo,25.4231,-100.9919,0,864431,145
Saltillo,25.4231,-100.9919,0,864431,146
Gaomi,36.3833,119.75,0,868715,45
Liverpool,53.4075,-2.9919,0,864122,239
Ipoh,4.5972,101.075,0,866772,136
Oran,35.6969,-0.6331,0,852000,3
Portsmouth,50.8058,-1.0872,0,855679,239
Southampton,50.9025,-1.4042,0,855569,239
Hermosillo,29.0989,-110.9542,0,855563,145
Hermosillo,29.0989,-110.9542,0,855563,146
Cochabamba,-17.3833,-66.1667,0,856198,27
Cochabamba,-17.3833,-66.1667,0,856198,28
Weichanglu,37.1792,119.9333,0,859424,45
Shache,38.4261,77.25,0,851374,45
Wuxi,26.5895,111.8481,0,853197,45
Leping,28.9632,117.1203,0,852800,45
Hailun,47.4585,126.9632,0,850000,45
Macheng,31.1817,115.0189,0,849090,45
Akure,7.25,5.195,0,847903,165
Ilorin,8.5,4.55,0,847582,165
Yuci,37.6823,112.7281,0,840000,45
Saratov,51.5333,46.0167,0,845300,188
Erbil,36.1912,44.0092,0,846000,107
Iguacu,-22.74,-43.47,0,844583,31
Pasig city,14.575,121.0833,0,803159,181
Dehui,44.5333,125.7,0,839786,45
Kalkaji devi,28.5485,77.2513,0,824177,104
Bhubaneshwar,20.27,85.84,0,837737,104
Honolulu,21.3294,-157.846,0,835291,240
Tongchuan,34.9057,108.9422,0,834437,45
Cheongju,36.6333,127.4833,0,833276,120
Chengxiang,31.4515,121.1043,0,831113,45
Thessaloniki,40.6403,22.9347,0,824676,87
Warri,5.5167,5.75,0,830106,165
Sakai,34.5733,135.4831,0,824408,113
Pointe-noire,-4.8,11.85,0,829134,50
Rongjiawan,29.1409,113.1087,0,826000,45
Mediouna,33.45,-7.51,0,822851,152
Butterworth,5.3992,100.3639,0,821652,136
Renqiu,38.7094,116.1008,0,822455,45
Xindi,29.8182,113.4653,0,819446,45
Bhayandar,19.29,72.85,0,809378,104
Wu'an,36.6941,114.1847,0,819000,45
Sao bernardo do campo,-23.7,-46.55,0,816925,31
Mandvi,19.3,72.85,0,814655,104
Barinas,8.6333,-70.2,0,816264,246
Barinas,8.6333,-70.2,0,816264,247
Zijinglu,34.7513,112.9854,0,807857,45
Gaoyou,32.7847,119.4432,0,811800,45
Culiacan,24.8069,-107.3939,0,808416,145
Culiacan,24.8069,-107.3939,0,808416,146
Hejian,38.4451,116.0897,0,810306,45
Yiyang,26.4103,112.3913,0,810447,45
Puxi,35.2125,114.735,0,809535,45
Androtsy,-24.1,46.3,0,809313,134
Mcallen,26.2252,-98.2467,0,809002,240
Qingping,34.538,113.3796,0,797200,45
Omaha,41.2627,-96.0529,0,806485,240
Joao pessoa,-7.12,-34.88,0,801718,31
Dongyang,29.2785,120.2282,0,804398,45
Queretaro,20.5875,-100.3928,0,801940,145
Queretaro,20.5875,-100.3928,0,801940,146
Krakow,50.0614,19.9372,0,800653,183
George town,5.4144,100.3292,0,794313,136
Abaete,-19.1583,-45.4522,0,800000,31
Palermo,2.8917,-75.4375,0,800000,47
Palermo,2.8917,-75.4375,0,800000,48
Valencia,39.47,-0.3764,0,792492,215
Xigaze,29.25,88.8833,0,798153,45
El paso,31.8476,-106.43,0,794344,240
Seyhan,36.9831,35.3328,0,792536,232
Niigata,37.9161,139.0364,0,790646,113
Hempstead,40.6629,-73.6089,0,791018,240
Leeds,53.8003,-1.5497,0,789194,239
Hamamatsu,34.7108,137.7275,0,788211,113
Bagcilar,41.0344,28.8564,0,734369,232
Xiangxiang,27.7389,112.5223,0,787216,45
Bilbao,43.2569,-2.9236,0,775000,215
Chaohucun,31.6783,117.7353,0,782000,45
Fuyang,30.0553,119.95,0,771000,45
Homs,34.7333,36.7167,0,775404,223
Kucukcekmece,41.0,28.8,0,770317,232
Lubango,-14.9167,13.5,0,776249,7
Zouping,36.8625,117.7424,0,774517,45
Khujand,40.2833,69.6333,0,770000,225
San luis potosi,22.1511,-100.9761,0,772828,145
San luis potosi,22.1511,-100.9761,0,772828,146
Nottingham,52.9533,-1.15,0,768638,239
Cencheng,22.9297,111.0186,0,772113,45
Dali,25.6808,100.3003,0,771128,45
Hamhung,39.9167,127.5333,0,768551,119
Korla,41.7259,86.1746,0,770000,45
Rajshahi,24.3667,88.6,0,763580,18
Erzurum,39.9086,41.2769,0,767848,232
Frankfurt,50.1106,8.6822,0,764104,84
Al `ayn,24.2075,55.7447,0,766936,238
Songzi,30.1772,111.7732,0,765911,45
Albuquerque,35.1054,-106.6465,0,765693,240
Patiala,30.34,76.38,0,763280,104
Laixi,36.8667,120.5333,0,762900,45
Bahawalpur,29.3956,71.6836,0,762111,174
Zhongba,31.7761,104.7406,0,762140,45
Kaduna,10.5167,7.4333,0,760084,165
Qingnian,36.8494,115.7061,0,760781,45
San pedro sula,15.5,-88.0333,0,760182,100
Qamdo,31.1375,97.1777,0,760966,45
Xinhualu,34.3962,113.7249,0,758079,45
Nerima,35.7355,139.6517,0,742463,113
Guangshui,31.6189,113.8229,0,755910,45
Pietermaritzburg,-29.6167,30.3833,0,750845,212
Baardheere,2.3333,42.2833,0,755500,211
Tlajomulco de zuniga,20.4736,-103.4431,0,727750,145
Tlajomulco de zuniga,20.4736,-103.4431,0,727750,146
Samarinda,-0.5,117.1378,0,753370,105
Changhua,24.0667,120.5333,0,750000,224
Sizhan,39.0099,106.3694,0,751389,45
Ciudad guayana,8.3667,-62.65,0,751331,246
Ciudad guayana,8.3667,-62.65,0,751331,247
Cucuta,7.8942,-72.5039,0,750000,47
Cucuta,7.8942,-72.5039,0,750000,48
Dhulia,20.8997,74.7697,0,750000,104
Burco,9.5279,45.5345,0,750211,211
Licheng,31.4174,119.4786,0,749522,45
Ota-ku,35.5613,139.716,0,737187,113
Thiruvananthapuram,8.4875,76.9525,0,743691,104
Tyumen,57.15,65.5333,0,744554,188
Nampula,-15.1167,39.2667,0,743000,153
Zaporizhzhia,47.85,35.1175,0,741717,237
Kyaukse,21.6131,96.1303,0,741071,154
Chengguan,35.5256,113.6976,0,740435,45
Kumamoto,32.8031,130.7078,0,738385,113
Nehe,48.48,124.8738,0,740000,45
Osogbo,7.7667,4.5667,0,731000,165
Cabinda,-5.56,12.19,0,739182,7
Kerman,30.2833,57.0833,0,738374,106
Zunhua,40.1881,117.9593,0,737011,45
Rochester,43.168,-77.6162,0,737309,240
Valenzuela,14.7,120.98,0,714978,181
Orumiyeh,37.5486,45.0675,0,736224,106
Wugang,26.7345,110.6293,0,734870,45
Shuangqiao,35.0833,112.5833,0,733000,45
Tshikapa,-6.4167,20.8,0,732000,51
Sao jose dos campos,-23.1789,-45.8869,0,729737,31
Comodoro rivadavia,-45.8647,-67.4808,0,730266,10
Cagayan de oro,8.4833,124.65,0,728402,181
Tondo,14.617,120.967,0,654220,181
Langzhong,31.5504,105.9938,0,728935,45
Qian'an,40.0059,118.6973,0,728160,45
Lviv,49.8425,24.0322,0,724314,237
Sarasota,27.3387,-82.5432,0,727388,240
Reynosa,26.0922,-98.2778,0,725793,145
Reynosa,26.0922,-98.2778,0,725793,146
Santo andre,-23.6572,-46.5333,0,721368,31
An najaf,32.0,44.33,0,724700,107
Sagamihara,35.5667,139.3667,0,722973,113
Guli,28.9008,120.0284,0,723490,45
Mississauga,43.6,-79.65,0,721599,39
Concepcion,-36.8282,-73.0514,0,719944,43
Concepcion,-36.8282,-73.0514,0,719944,44
Okayama,34.65,133.9167,0,720043,113
Anlu,31.2575,113.6783,0,720000,45
Fresno,36.783,-119.7939,0,719558,240
Changsha,22.3762,112.6877,0,717700,45
Torreon,25.5394,-103.4486,0,716672,145
Torreon,25.5394,-103.4486,0,716672,146
Shihezi,44.3054,86.0804,0,717000,45
Enugu,6.4528,7.5111,0,715774,165
Jaboatao,-8.1803,-35.0014,0,702621,31
Tulsa,36.1283,-95.9042,0,715983,240
Yanggok,37.6333,127.2167,0,713321,120
Yatou,37.1653,122.4867,0,714211,45
Edogawa,35.7066,139.8683,0,697932,113
Allentown,40.5961,-75.4756,0,714136,240
Ribeirao preto,-21.1783,-47.8067,0,711825,31
Xichang,27.8983,102.2706,0,712434,45
Latakia,35.5167,35.7833,0,700000,223
Bhiwandi,19.2967,73.0631,0,709665,104
City of paranaque,14.47,121.02,0,689992,181
Dasmarinas,14.3294,120.9367,0,703141,181
Dayton,39.7805,-84.2003,0,709300,240
Saharanpur,29.964,77.546,0,705478,104
Warangal,17.9689,79.5941,0,704570,104
Soledad,10.9167,-74.75,0,698852,47
Soledad,10.9167,-74.75,0,698852,48
Osasco,-23.5328,-46.7919,0,694844,31
Dashiqiao,40.6328,122.5021,0,704891,45
Birmingham,33.5279,-86.7971,0,704676,240
Nampo,38.7333,125.4,0,703317,119
Shiliguri,26.71,88.43,0,701489,104
Banjarmasin,-3.32,114.5925,0,692793,105
Sha tin,22.3802,114.1898,0,640000,101
Salem,11.65,78.15,0,693236,104
General santos,6.1167,125.1667,0,697315,181
Cocody,5.35,-3.9667,0,692583,54
Hamah,35.1333,36.75,0,696863,223
Pendik,40.8747,29.235,0,693599,232
Bacoor,14.4624,120.9645,0,664625,181
Vellore,12.9165,79.1325,0,696110,104
Shishi,24.7355,118.6434,0,693000,45
Guadalupe,25.6775,-100.2597,0,691931,145
Guadalupe,25.6775,-100.2597,0,691931,146
Adachi,35.7749,139.8044,0,682326,113
Qianxi,27.0284,106.0327,0,695947,45
Tolyatti,53.5089,49.4222,0,693072,188
Macau,22.2006,113.5461,0,568700,80
Bauchi,10.3158,9.8442,0,693700,165
Hamilton,43.2567,-79.8692,0,693645,39
Lodz,51.7769,19.4547,0,690422,183
Miluo chengguanzhen,28.8049,113.0745,0,692080,45
Gaizhou,40.4019,122.3499,0,691595,45
Karbala',32.6167,44.0333,0,690100,107
Leling,37.7333,117.2167,0,689867,45
Jianshe,34.2189,113.7693,0,687130,45
Shizuoka,34.9756,138.3828,0,685589,113
Charleston,32.8168,-79.9687,0,685517,240
Jingcheng,32.0058,120.2547,0,684360,45
Kochi,9.97,76.28,0,677381,104
Mar del plata,-38.0,-57.55,0,682605,10
Cape coral,26.6443,-81.9957,0,682773,240
Tasikmalaya,-7.3161,108.1975,0,678027,105
Rasht,37.2808,49.5831,0,679995,106
Xinmin,41.9952,122.8224,0,680000,45
Shanhu,29.5908,120.8176,0,679762,45
Zhongshu,27.8116,106.4133,0,679624,45
Gorakhpur,26.7637,83.4039,0,673446,104
Zaragoza,41.65,-0.8833,0,675301,215
Wroclaw,51.11,17.0325,0,672929,183
Acapulco de juarez,16.8636,-99.8825,0,673478,145
Acapulco de juarez,16.8636,-99.8825,0,673478,146
Bahar,34.9072,48.4414,0,673405,106
Kumul,42.8193,93.5151,0,673383,45
Murcia,37.9861,-1.1303,0,672773,215
Pinghu,30.7005,121.0104,0,671834,45
Palermo,38.1157,13.3613,0,668405,111
Guankou,30.9933,103.624,0,671200,45
Tlaquepaque,20.6167,-103.3167,0,664193,145
Tlaquepaque,20.6167,-103.3167,0,664193,146
Songyang,34.4603,113.028,0,668592,45
Ch'ongjin,41.7833,129.7667,0,667929,119
Puyang chengguanzhen,35.7004,114.98,0,666322,45
Qionghu,28.8417,112.3595,0,667104,45
Zhaodong,46.0635,125.9773,0,666532,45
Narela,28.8527,77.0929,0,661994,104
Huambo,-12.7767,15.7347,0,665564,7
Wenchang,31.054,116.9507,0,664455,45
Villavicencio,4.15,-73.6333,0,664148,47
Villavicencio,4.15,-73.6333,0,664148,48
Shulan,44.4079,126.9429,0,663403,45
Tlalnepantla,19.5367,-99.1947,0,653410,145
Tlalnepantla,19.5367,-99.1947,0,653410,146
Catia la mar,10.6,-67.0333,0,661897,246
Catia la mar,10.6,-67.0333,0,661897,247
Sargodha,32.0836,72.6711,0,659862,174
Al hufuf,25.3833,49.5833,0,660788,170
Durango,24.025,-104.6675,0,654876,145
Durango,24.025,-104.6675,0,654876,146
Jalingo,8.9195,11.3264,0,660213,165
Bouake,7.6833,-5.0167,0,659233,54
Mazatlan,23.2167,-106.4167,0,658354,145
Mazatlan,23.2167,-106.4167,0,658354,146
San jose del monte,14.8139,121.0453,0,651813,181
Ansan,37.3167,126.8333,0,652800,120
Abomey-calavi,6.4486,2.3556,0,655965,23
Lingbao chengguanzhen,34.5221,110.8786,0,656571,45
Hwasu-dong,37.1997,126.8314,0,655350,120
Sialkot city,32.4925,74.5311,0,655852,174
Hue,16.4667,107.5792,0,652572,248
Bulawayo,-20.17,28.58,0,653337,204
Xiping,25.6005,103.8166,0,652604,45
Sanhe,39.9808,117.0701,0,652042,45
Ch'onan,36.8167,127.1667,0,651661,120
Contagem,-19.9319,-44.0539,0,648766,31
Jieshou,33.2605,115.3618,0,650870,45
Selcuklu,37.8814,32.4922,0,648850,232
Erer sata,9.5667,41.3833,0,649000,72
Honcho,35.6946,139.9826,0,641499,113
Dusseldorf,51.2333,6.7833,0,645923,84
Izhevsk,56.85,53.2167,0,646277,188
Guntur,16.3008,80.4428,0,647508,104
!guixi,28.2861,117.2083,0,647240,45
Sorocaba,-23.5017,-47.4581,0,644919,31
Yildirim,40.11,29.0821,0,643681,232
Petaling jaya,3.0972,101.6444,0,638516,136
Tengyue,25.0208,98.4972,0,644765,45
Wuxue,29.8518,115.5539,0,644247,45
Rasulpur,28.57,77.32,0,637272,104
Bhavnagar,21.76,72.15,0,643365,104
Brahmapur,19.315,84.7941,0,634220,104
Qufu,35.6,116.9833,0,640498,45
Gaobeidian,39.3257,115.8678,0,640280,45
Ruiming,25.8833,116.0333,0,640600,45
Columbia,34.0378,-80.9036,0,640502,240
Concord,37.9722,-122.0016,0,640270,240
Noida,28.57,77.32,0,637272,104
Gold coast,-28.0167,153.4,0,638090,13
Xinshi,31.0236,113.1079,0,636776,45
Ta`izz,13.5789,44.0219,0,615467,252
Aracaju,-10.9167,-37.05,0,632744,31
Jeonju,35.8167,127.15,0,631532,120
Bhangar,22.58,88.42,0,632107,104
Jin'e,29.3395,105.2868,0,633210,45
Barnaul,53.3333,83.75,0,633301,188
Makati city,14.5567,121.0214,0,629616,181
Rotterdam,51.9167,4.5,0,631155,159
Changping,40.2248,116.1944,0,614821,45
Benghazi,32.1167,20.0667,0,631555,130
Kryvyi rih,47.9086,33.3433,0,629695,237
Halwan,29.8453,31.3333,0,619293,65
Colorado springs,38.8674,-104.7605,0,628808,240
Suohe,34.7879,113.392,0,626700,45
Chimalhuacan,19.4167,-98.9,0,614453,145
Chimalhuacan,19.4167,-98.9,0,614453,146
Xinxing,39.8734,124.1453,0,627475,45
Bhilai,21.3667,81.7167,0,625700,104
Mangalore,12.902,74.8253,0,623841,104
Port-bouet,5.2667,-3.9,0,618795,54
Zhuangyuan,37.3056,120.8275,0,626683,45
Glasgow,55.8611,-4.25,0,626410,239
Namangan,41.0011,71.6683,0,626120,244
Ulyanovsk,54.3167,48.3667,0,624518,188
Tan an,10.905,106.6994,0,618984,248
Irkutsk,52.2833,104.2833,0,623736,188
Bhilai,21.21,81.38,0,624700,104
Nagercoil,8.1833,77.4119,0,622759,104
Jos,9.9167,8.8903,0,622802,165
Pontianak,-0.0206,109.3414,0,618388,105
Bazhou,39.1235,116.386,0,622975,45
Turpan,42.9512,89.1895,0,622903,45
Villa nueva,14.5314,-90.5964,0,618397,92
Las pinas city,14.45,120.98,0,606293,181
Springfield,42.1155,-72.5395,0,620494,240
Knoxville,35.9692,-83.9496,0,619925,240
Meihekou,42.5279,125.678,0,618251,45
Jurong,31.9579,119.1595,0,617706,45
Feira de santana,-12.25,-38.95,0,617528,31
Khabarovsk,48.4833,135.0667,0,616242,188
Zhugang,28.1277,121.2288,0,616346,45
Leipzig,51.34,12.375,0,615081,84
Xinji,37.9423,115.2118,0,615919,45
Serang,-6.12,106.1503,0,613356,105
Jambi,-1.59,103.61,0,612162,105
Kandahar,31.62,65.7158,0,614254,1
San miguel de tucuman,-26.8167,-65.2167,0,605767,10
Gothenburg,57.7075,11.9675,0,607882,219
Yaroslavl,57.6167,39.85,0,608079,188
Baton rouge,30.442,-91.1311,0,610751,240
Zhangshu,28.0667,115.5375,0,610424,45
Vladivostok,43.1333,131.9,0,606589,188
Ogden,41.2279,-111.9682,0,608259,240
Kuantan,3.8167,103.3333,0,607778,136
Raurkela,22.2492,84.8828,0,600000,104
Cuttack,20.5236,85.7881,0,606007,104
Ar rayyan,25.25,51.4,0,605712,186
Haifa,32.8192,34.9992,0,600000,110
Malanje,-9.5333,16.35,0,604215,7
Bacolod,10.6765,122.9509,0,600783,181
Zhuozhou,39.4887,115.9918,0,603535,45
Grand rapids,42.9619,-85.6562,0,604311,240
Uberlandia,-18.9231,-48.2886,0,604013,31
Albany,42.6664,-73.7987,0,604077,240
Tianchang,32.6853,119.0041,0,602840,45
Kawaguchi,35.8077,139.7241,0,593353,113
Itabashi,35.7512,139.7093,0,581337,113
Suginami-ku,35.6995,139.6364,0,583609,113
Cimahi,-6.8712,107.5548,0,586580,105
Tuxtla,16.7528,-93.1167,0,598710,145
Tuxtla,16.7528,-93.1167,0,598710,146
Garoua,9.3,13.4,0,600000,38
Hafr al batin,28.4342,45.9636,0,600000,170
Tumkur,13.34,77.1,0,599078,104
Balikpapan,-1.2768,116.8277,0,598043,105
Durban,-29.8833,31.05,0,595061,212
Kagoshima,31.6,130.55,0,593754,113
Al hillah,23.4895,46.7564,0,594605,170
Makhachkala,42.9833,47.4833,0,592976,188
Sihui,23.3448,112.6956,0,593400,45
Irapuato,20.6667,-101.35,0,592953,145
Irapuato,20.6667,-101.35,0,592953,146
Brampton,43.6833,-79.7667,0,593638,39
Luocheng,30.9793,104.28,0,591115,45
Mbale,1.0806,34.175,0,586300,236
Pereira,4.8143,-75.6946,0,590554,47
Pereira,4.8143,-75.6946,0,590554,48
Bakersfield,35.3529,-119.0359,0,590845,240
Uvira,-3.4,29.15,0,590000,51
Dortmund,51.5167,7.4667,0,587696,84
Chuxiong,25.0461,101.5436,0,588620,45
Mission viejo,33.6096,-117.6551,0,588540,240
Zahedan,29.4964,60.8628,0,587730,106
New haven,41.3113,-72.9246,0,587648,240
Shah alam,3.0722,101.5167,0,584340,136
Wenlan,23.3989,103.3631,0,585976,45
Cuiaba,-15.5958,-56.0969,0,585367,31
Shangzhi,45.2116,127.962,0,585386,45
Essen,51.4508,7.0131,0,582415,84
Botou,38.074,116.57,0,584308,45
Mymensingh,24.7539,90.4031,0,576722,18
Anyang,37.3833,126.9333,0,573296,120
Genoa,44.4111,8.9328,0,580097,111
Durgapur,23.55,87.32,0,581409,104
Port sudan,19.6167,37.2167,0,579942,217
Al mafraq,32.3399,36.2052,0,580000,115
Puente alto,-33.6167,-70.5667,0,573935,43
Puente alto,-33.6167,-70.5667,0,573935,44
Dehra dun,30.345,78.029,0,578420,104
At ta'if,21.2751,40.4062,0,579970,170
Wancheng,18.8,110.4,0,578600,45
Hachioji,35.6664,139.316,0,575721,113
Xiulin,29.7211,112.4037,0,577022,45
Fu'an,27.1,119.6333,0,577000,45
Tomsk,56.4886,84.9522,0,572740,188
Tonala,20.6167,-103.2333,0,569913,145
Tonala,20.6167,-103.2333,0,569913,146
Juiz de fora,-21.7619,-43.3494,0,573285,31
Worcester,42.2705,-71.8079,0,573573,240
Kolwezi,-10.7167,25.4667,0,572942,51
Chapra,25.7848,84.7274,0,567123,104
Bristol,51.4536,-2.5975,0,567111,239
Luofeng,37.359,120.396,0,570898,45
Lingyuan,41.2407,119.3957,0,570660,45
Irbid,32.55,35.85,0,569068,115
Al mahallah al kubra,30.9686,31.1636,0,535278,65
Wencheng,19.6167,110.75,0,568900,45
Bremen,53.0833,8.8,0,566573,84
Ciudad bolivar,8.1219,-63.55,0,567953,246
Ciudad bolivar,8.1219,-63.55,0,567953,247
Orenburg,51.7667,55.1,0,564773,188
Shenzhou,38.0005,115.5541,0,566087,45
Asansol,23.68,86.99,0,563917,104
Kuiju,36.8528,119.3904,0,564501,45
Zhenzhou,32.2739,119.1619,0,564021,45
Surakarta,-7.5667,110.8167,0,552118,105
Dresden,51.05,13.74,0,561922,84
Kolhapur,16.6917,74.2333,0,561489,104
Benguela,-12.55,13.4167,0,561775,7
Ensenada,31.8578,-116.6058,0,557430,145
Ensenada,31.8578,-116.6058,0,557430,146
Kemerovo,55.3667,86.0667,0,558973,188
Lanxi,29.2167,119.4722,0,560514,45
Dangyang,30.8258,111.791,0,560000,45
Faridpur,23.602,89.833,0,557632,18
Herat,34.3419,62.2031,0,556205,1
Luanzhou,39.7396,118.6978,0,554315,45
Hamadan,34.8064,48.5161,0,554406,106
Novokuznetsk,53.7667,87.1333,0,552105,188
Nellore,14.45,79.99,0,547621,104
Palma,39.5667,2.65,0,550000,215
Chiclayo,-6.763,-79.8366,0,552508,180
Nanded,19.15,77.3,0,550439,104
Ajmer,26.4499,74.6399,0,551101,104
Al hudaydah,14.8022,42.9511,0,548433,252
Kimhae,35.2342,128.8811,0,550758,120
Provo,40.2457,-111.6457,0,551645,240
Rustenburg,-25.6667,27.2428,0,549575,212
Amravati,20.9258,77.7647,0,549370,104
Poznan,52.4083,16.9336,0,546859,183
Huanghua,38.371,117.3329,0,548507,45
Muntinlupa city,14.38,121.05,0,543445,181
Londrina,-23.31,-51.1628,0,548249,31
Nansana,0.3639,32.5286,0,532800,236
Tabuk,28.3972,36.5789,0,547957,170
Heroica matamoros,25.8797,-97.5042,0,541979,145
Heroica matamoros,25.8797,-97.5042,0,541979,146
Akron,41.0798,-81.5219,0,546549,240
Samarkand,39.6547,66.9758,0,546303,244
Xingcheng,40.6189,120.7205,0,546176,45
Kaiyuan,42.538,124.0371,0,545624,45
Hannover,52.3667,9.7167,0,542668,84
Valledupar,10.4833,-73.25,0,544134,47
Valledupar,10.4833,-73.25,0,544134,48
Fengcheng,40.4543,124.0646,0,543933,45
Ixtapaluca,19.3186,-98.8822,0,542211,145
Ixtapaluca,19.3186,-98.8822,0,542211,146
Ghulja,43.9,81.35,0,542507,45
City of calamba,14.2167,121.1667,0,539671,181
Ananindeua,-1.3658,-48.3719,0,540410,31
Xiangyang,34.2999,108.4816,0,541554,45
Fuding,27.2,120.2,0,542000,45
An nasiriyah,31.0439,46.2575,0,541600,107
Al hillah,32.4833,44.4333,0,541034,107
Ibague,4.4333,-75.2333,0,541101,47
Ibague,4.4333,-75.2333,0,541101,48
Ryazan,54.63,39.7425,0,537622,188
Kassala,15.45,36.4,0,536009,217
Tripoli,34.4367,35.8344,0,530000,125
Chang'an,29.4761,113.448,0,537500,45
Koto-ku,35.6728,139.8173,0,523117,113
Naberezhnyye chelny,55.7,52.3333,0,533839,188
Aksu,41.185,80.2904,0,535657,45
Salta,-24.7833,-65.4167,0,535303,10
Astrakhan,46.35,48.035,0,532504,188
Gulbarga,17.329,76.825,0,533587,104
Cadaado,6.1403,46.6256,0,534023,211
Lyon,45.76,4.84,0,522969,77
Wuhai,39.6844,106.8158,0,532902,45
Mingguang,32.7816,117.9899,0,532732,45
Antwerp,51.2178,4.4003,0,529247,21
Yazd,31.8822,54.3397,0,529673,106
Touba,14.8667,-15.8833,0,529176,199
Ardabil,38.2425,48.29,0,529374,106
Bikaner,28.0167,73.3119,0,529007,104
Agartala,23.8333,91.2833,0,522613,104
Ndola,-12.9667,28.6333,0,528330,253
Himeji,34.8167,134.6833,0,527596,113
Palm bay,27.9631,-80.6593,0,528322,240
Tultitlan de mariano escobedo,19.645,-99.1694,0,520557,145
Tultitlan de mariano escobedo,19.645,-99.1694,0,520557,146
Ailan mubage,43.908,81.2777,0,526745,45
Bandar `abbas,27.1833,56.2667,0,526648,106
Bac ninh,21.1833,106.05,0,520000,248
Ciudad apodaca,25.7817,-100.1886,0,523370,145
Ciudad apodaca,25.7817,-100.1886,0,523370,146
Santa teresa del tuy,10.2333,-66.65,0,525321,246
Santa teresa del tuy,10.2333,-66.65,0,525321,247
Maipu,-33.5167,-70.7667,0,521627,43
Maipu,-33.5167,-70.7667,0,521627,44
Penza,53.2,45.0,0,523726,188
Soacha,4.5872,-74.2214,0,522442,47
Soacha,4.5872,-74.2214,0,522442,48
Al qatif,26.556,49.996,0,524182,170
Port said,31.2625,32.3061,0,524433,65
Loni,28.75,77.28,0,516082,104
Yucheng,36.9329,116.6403,0,522878,45
Sevastopol,44.605,33.5225,0,522057,237
Meknes,33.895,-5.5547,0,520428,152
Mixco,14.6338,-90.6146,0,517505,92
Arak,34.0917,49.6892,0,520944,106
Pohang,36.0322,129.365,0,520305,120
Longzhou,30.32,112.23,0,520000,45
Anda,46.4078,125.3252,0,520000,45
Jinghong,22.0057,100.7948,0,519935,45
Sheffield,53.3808,-1.4703,0,518090,239
Utsunomiya,36.5551,139.8826,0,518197,113
Suez,29.9667,32.55,0,516959,65
Nuremberg?,49.4539,11.0775,0,515543,84
Surrey,49.19,-122.8489,0,517887,39
Heshan,22.7697,112.9578,0,516500,45
Ujjain,23.17,75.79,0,515215,104
Jiaji,19.2431,110.4642,0,515700,45
Santa marta,11.2419,-74.2053,0,515556,47
Santa marta,11.2419,-74.2053,0,515556,48
Joinvile,-26.3204,-48.8437,0,515288,31
Beining,41.5961,121.7928,0,514898,45
Des moines,41.5725,-93.6105,0,514654,240
Hai duong,20.9397,106.3306,0,507469,248
Carrefour,18.5344,-72.4094,0,511345,97
Carrefour,18.5344,-72.4094,0,511345,98
Maturin,9.7423,-63.1889,0,514046,246
Maturin,9.7423,-63.1889,0,514046,247
Homyel',52.4453,30.9842,0,510300,20
Leicester,52.6344,-1.1319,0,508916,239
Yanji,42.9044,129.5067,0,513072,45
Macapa,0.033,-51.0653,0,512902,31
Yicheng,31.7117,112.2551,0,512530,45
Ulhasnagar,19.22,73.15,0,506098,104
Al `ashir min ramadan,30.3065,31.7415,0,511987,65
Lipetsk,52.6167,39.6,0,510439,188
Al `amarah,31.8333,47.15,0,511500,107
Bhilwara,25.35,74.63,0,509483,104
Encheng,22.1879,112.3131,0,509700,45
Murrieta,33.5719,-117.1909,0,509526,240
Aden,12.8,45.0333,0,507355,252
Kitwe,-12.8167,28.2,0,504194,253
Matsuyama,33.8333,132.7667,0,506743,113
Jhansi,25.4486,78.5696,0,507000,104
Pingtung,22.6761,120.4942,0,503530,224
Lapu-lapu city,10.3127,123.9488,0,497604,181
Matsudo,35.7876,139.9032,0,497514,113
Monteria,8.75,-75.8833,0,505334,47
Monteria,8.75,-75.8833,0,505334,48
Ichikawa,35.7219,139.9311,0,496657,113
Nagqu,31.4766,92.0569,0,504838,45
Imus,14.4297,120.9367,0,496794,181
Hsinchu,24.8167,120.9833,0,499348,224
Kimberley,-28.7383,24.7639,0,500757,212
Jammu,32.73,74.87,0,502197,104
Belas,-8.9983,13.265,0,500000,7
Talatona,-8.9167,13.1833,0,500000,7
Ile-ife,7.4667,4.5667,0,501952,165
Purnea,25.778,87.476,0,496830,104
Kirov,58.6,49.65,0,501468,188
Mykolaiv,46.975,31.995,0,498748,237
Meicheng,30.6412,116.5689,0,500292,45
Tinnevelly,8.7136,77.7567,0,497826,104
Niteroi,-22.8833,-43.1036,0,496696,31
Farah,32.3436,62.1194,0,500000,1
Sukkur,27.7061,68.8483,0,499900,174
Oujda-angad,34.6867,-1.9114,0,494252,152
Taozhou,30.8956,119.411,0,499132,45
Marka,1.6833,44.75,0,499000,211
Higashi-osaka,34.6794,135.6008,0,490819,113
Johor bahru,1.4556,103.7611,0,497097,136
Hongjiang,27.1167,109.95,0,498100,45
Bello,6.3333,-75.5667,0,495483,47
Bello,6.3333,-75.5667,0,495483,48
Chimbote,-9.0745,-78.5936,0,497875,180
Duisburg,51.4347,6.7625,0,495885,84
Qaraghandy,49.8028,73.1056,0,497777,116
Mesa,33.4015,-111.7178,0,497752,240
Toulouse,43.6045,1.444,0,493465,77
Likasi,-10.9833,26.7333,0,495000,51
Dengtacun,41.4237,123.3203,0,496122,45
Lembok,-8.565,116.351,0,495651,105
Zhijiang,30.4271,111.7506,0,495995,45
Chengjiao,35.4043,114.0593,0,495744,45
Beipiao,41.802,120.7621,0,496164,45
Suoluntun,45.2279,124.8432,0,495900,45
Staten island,40.5834,-74.1496,0,495747,240
Kota bharu,6.1333,102.25,0,491237,136
Ciudad lopez mateos,19.55,-99.2833,0,489937,145
Ciudad lopez mateos,19.55,-99.2833,0,489937,146
Celaya,20.5222,-100.8122,0,494304,145
Celaya,20.5222,-100.8122,0,494304,146
Vinh,18.6667,105.6667,0,490000,248
Duyun,26.2672,107.5143,0,493574,45
Los mochis,25.7835,-108.9937,0,490000,145
Los mochis,25.7835,-108.9937,0,490000,146
`ajman,25.4136,55.4456,0,490035,238
Nyala,12.05,24.8833,0,492984,217
Larkana,27.5583,68.2111,0,490508,174
Wichita,37.6895,-97.3443,0,491916,240
Nishinomiya-hama,34.7376,135.3416,0,487010,113
Cheboksary,56.1333,47.25,0,489498,188
Yuanping,38.7299,112.7134,0,491213,45
Toledo,41.6638,-83.5827,0,490832,240
Yueqing,28.1188,120.9621,0,488980,45
Edinburgh,55.9533,-3.1892,0,488050,239
Belgaum,15.85,74.5,0,488157,104
Tula,54.2,37.6167,0,485221,188
Gdansk,54.3475,18.6453,0,486022,183
Shahe,36.8622,114.502,0,486329,45
Serra,-20.1289,-40.3078,0,485376,31
Brookhaven,40.832,-72.9517,0,485984,240
Gaoping,35.7911,112.9259,0,484862,45
Dunhua,43.3667,128.2333,0,483811,45
Az zarqa',32.0833,36.1,0,481300,115
Sylhet,24.9,91.8667,0,479837,18
Kaihua,23.3715,104.2437,0,481505,45
Caerdydd,51.4817,-3.1792,0,479000,239
Jamnagar,22.47,70.07,0,479920,104
Fuyuan,48.3614,134.2875,0,480000,45
Gaya,24.75,85.01,0,474093,104
Florianopolis,-27.6122,-48.4853,0,477798,31
Chiniot,31.7194,72.9842,0,477781,174
Jiannan,31.3446,104.1994,0,477868,45
Oita,33.2333,131.6067,0,477186,113
Berbera,10.4356,45.0164,0,478000,211
Kaliningrad,54.7003,20.4531,0,475056,188
Nangong,37.3606,115.3803,0,476096,45
Ambattur,13.1143,80.1548,0,466205,104
Katlehong,-26.3333,28.15,0,467890,212
Kurashiki,34.5833,133.7667,0,474862,113
Barura,23.375,91.0583,0,473590,18
San juan,-31.5342,-68.5261,0,471389,10
Vila velha,-20.3364,-40.2936,0,472762,31
Mazar-e sharif,36.7,67.1167,0,469247,1
Shekhupura,31.7111,73.9878,0,473129,174
Worthing,50.8147,-0.3714,0,474485,239
Piura,-5.2,-80.6333,0,473025,180
Mandaluyong city,14.58,121.03,0,425758,181
Kartal,40.8872,29.19,0,461155,232
Jiaojiangcun,28.6804,121.45,0,471500,45
Harrisburg,40.2752,-76.8843,0,472261,240
Laohekou,32.3849,111.6695,0,471482,45
Kagithane,41.0719,28.9664,0,437026,232
Agege,6.6219,3.3258,0,459939,165
Angeles city,15.1472,120.5847,0,462928,181
Sao jose do rio preto,-20.8081,-49.3811,0,469173,31
Pasay city,14.55,121.0,0,440656,181
Beian,48.2395,126.5037,0,470000,45
Fujin,47.2489,132.0341,0,470000,45
Salt lake city,22.61,88.4,0,403316,104
Balashikha,55.8167,37.9667,0,468221,188
Xiaoyi,37.1449,111.7718,0,468770,45
Port st. lucie,27.2796,-80.3884,0,468979,240
Lanus,-34.7,-58.4,0,459263,10
Qingzhen,26.5555,106.4646,0,467992,45
Jiangshan,28.7412,118.6225,0,467862,45
Ba`qubah,33.75,44.6333,0,467900,107
Katsushika-ku,35.7434,139.8472,0,453410,113
Buraydah,26.3333,43.9667,0,467410,170
Longjiang,27.582,120.5488,0,464695,45
Tan uyen,11.0508,106.7636,0,466053,248
Long beach,33.7977,-118.167,0,466565,240
Marikina city,14.65,121.1,0,456059,181
Manado,1.4931,124.8413,0,461636,105
Campos,-21.7539,-41.3239,0,463731,31
Kanazawa,36.5611,136.6564,0,462479,113
Iloilo,10.7167,122.5667,0,457626,181
Reno,39.5497,-119.8483,0,463328,240
Calabar,4.9767,8.3383,0,461796,165
Kuqa,41.7156,82.9322,0,462588,45
Piraeus,37.943,23.6469,0,448997,87
Madison,43.0822,-89.393,0,461778,240
Jalgaon,21.004,75.568,0,460468,104
Cranbourne,-38.0996,145.2834,0,460491,13
Kowloon city,22.3282,114.1916,0,418732,101
Maua,-23.6678,-46.4608,0,453286,31
Fukuyama,34.4833,133.3667,0,459576,113
Xicheng,23.3629,103.1545,0,459781,45
Kikwit,-5.0386,18.8181,0,458000,51
Amagasaki,34.7333,135.4,0,450506,113
Pyeongtaek,36.9922,127.1128,0,457873,120
Kurnool,15.83,78.05,0,457633,104
Little rock,34.7256,-92.3577,0,457379,240
Melaka,2.1944,102.2486,0,455300,136
General trias,14.3833,120.8833,0,450583,181
Jian'ou,27.0387,118.3215,0,456000,45
Esenler,41.0339,28.8903,0,444561,232
Huadian,42.9633,126.7478,0,455339,45
Tanta,30.7833,31.0,0,429503,65
Kota kinabalu,5.975,116.0725,0,452058,136
Kursk,51.7167,36.1833,0,450977,188
Minzhu,43.7192,127.337,0,453265,45
Stavropol,45.05,41.9833,0,450680,188
Udaipur,24.58,73.68,0,451100,104
Mogi das cruzes,-23.5228,-46.1878,0,450785,31
Mariupol,47.0958,37.5494,0,449498,237
Eslamshahr,35.5606,51.2347,0,448129,106
San nicolas de los garza,25.75,-100.2833,0,443273,145
San nicolas de los garza,25.75,-100.2833,0,443273,146
Greenville,34.8354,-82.3646,0,450487,240
Sham shui po,22.3307,114.1622,0,405869,101
Barcelona,10.1333,-64.6833,0,448016,246
Barcelona,10.1333,-64.6833,0,448016,247
Constantine,36.365,6.6147,0,448374,3
Tanbei,35.0907,112.9317,0,447701,45
Ado-ekiti,7.6167,5.2167,0,446749,165
Batman,37.887,41.132,0,447106,232
Bandung,-6.912,107.6097,0,432557,105
Baisha,29.4774,119.2853,0,446000,45
Avcilar,40.9792,28.7214,0,435625,232
Denton,33.2175,-97.1418,0,445814,240
Rodriguez,14.7167,121.1167,0,443954,181
Taoyuan district,24.9913,121.3143,0,443273,224
Yongji,34.867,110.4417,0,444724,45
Chauddagram,23.2283,91.3133,0,443648,18
Danjiangkou,32.5408,111.5098,0,443755,45
Kahramanmaras,37.5833,36.9333,0,443575,232
Fujisawa,35.35,139.4667,0,436744,113
Andijon,40.7833,72.3333,0,441700,244
Mathura,27.4925,77.6736,0,441894,104
Zurich,47.3744,8.5411,0,436332,220
Zurich,47.3744,8.5411,0,436332,221
Zurich,47.3744,8.5411,0,436332,222
Diadema,-23.6861,-46.6106,0,426757,31
Machida,35.7106,139.4386,0,434414,113
Ulan-ude,51.8272,107.6064,0,439128,188
Spokane,47.6671,-117.433,0,440270,240
Ning'an,44.3439,129.4656,0,440000,45
Zhangjiakou shi xuanhua qu,40.5944,115.0243,0,409745,45
Sunch'on,39.4167,125.9333,0,437000,119
Jinchang,38.5168,102.1866,0,438026,45
Kashiwa,35.8676,139.9758,0,433941,113
Guangming,45.3357,122.7765,0,437559,45
Sangli,16.8667,74.5667,0,436639,104
Oakland,37.7904,-122.2166,0,437548,240
Beira,-19.8333,34.85,0,436240,153
Kupang,-10.1702,123.6077,0,433970,105
Jeju,33.5097,126.5219,0,435413,120
Davangere,14.4666,75.9242,0,435125,104
Caxias do sul,-29.1667,-51.1833,0,435564,31
Manizales,5.1,-75.55,0,434403,47
Manizales,5.1,-75.55,0,434403,48
Yogyakarta,-7.8014,110.3644,0,422732,105
Calicut,11.25,75.77,0,431560,104
Koumassi,5.3,-3.95,0,412282,54
Veracruz,19.1903,-96.1533,0,428323,145
Veracruz,19.1903,-96.1533,0,428323,146
Zanjan,36.6789,48.5056,0,433475,106
Welkom,-27.9831,26.7208,0,431944,212
Shinagawa-ku,35.6092,139.7302,0,415729,113
Kenitra,34.25,-6.5833,0,431282,152
Agadir,30.4333,-9.6,0,421844,152
?somolu,6.5408,3.3872,0,403569,165
Uyo,5.05,7.9333,0,429900,165
Sokoto,13.0622,5.2339,0,427760,165
Lancaster,40.042,-76.3012,0,430621,240
Masan,35.1833,128.55,0,429612,120
Huili chengguanzhen,26.6614,102.2469,0,430066,45
Sidi bouzid,35.0381,9.4858,0,429912,231
Cusco,-13.525,-71.9722,0,428450,180
Porto velho,-8.7619,-63.9039,0,428527,31
Sihung,37.3799,126.8029,0,425184,120
Xalapa,19.54,-96.9275,0,424755,145
Xalapa,19.54,-96.9275,0,424755,146
Florencio varela,-34.8167,-58.2833,0,426005,10
Tver,56.8578,35.9219,0,424969,188
Trabzon,41.005,39.7225,0,426882,232
Malatya,38.3486,38.3194,0,426381,232
Xunyang,32.8357,109.359,0,426677,45
Uijeongbu,37.7486,127.0389,0,421579,120
Akola,20.7,77.0,0,425817,104
Aomori,40.8223,140.7307,0,425962,113
Yan'an beilu,44.0144,87.2674,0,426253,45
Owo,7.1961,5.5864,0,425700,165
Aves,41.44,-8.3,0,425411,184
Buenaventura,3.8772,-77.0267,0,423927,47
Buenaventura,3.8772,-77.0267,0,423927,48
Poughkeepsie,41.695,-73.9211,0,423386,240
Laval,45.5833,-73.75,0,422993,39
Boise,43.6005,-116.2308,0,422665,240
Toyota,35.0824,137.1563,0,422106,113
Santa rosa,14.3167,121.1167,0,414812,181
Daloa,6.8833,-6.45,0,421871,54
Elazig,38.6744,39.2228,0,421726,232
Hpa-an,16.8906,97.6333,0,421525,154
Rahimyar khan,28.42,70.3,0,420419,174
Bettiah,26.8014,84.5028,0,414453,104
Ugep,5.8,8.0833,0,420000,165
Winston-salem,36.1029,-80.261,0,420400,240
Kushtia,23.9101,89.1231,0,418312,18
Mishan,45.542,131.8666,0,420000,45
Hailin,44.5735,129.3825,0,420000,45
Seremban,2.7222,101.9417,0,419536,136
Boa vista,2.8194,-60.6714,0,419652,31
Lecheng,25.1307,113.3472,0,419500,45
Zhengjiatun,43.513,123.5003,0,419529,45
Luhansk,48.5667,39.3333,0,417990,237
Pencheng,29.6792,115.6611,0,419047,45
Magnitogorsk,53.3833,59.0333,0,418241,188
Thu dau mot,10.9667,106.65,0,417000,248
Takamatsu,34.35,134.05,0,417814,113
Syracuse,43.0407,-76.1437,0,418875,240
El obeid,13.1833,30.2167,0,418280,217
Da'an,45.505,124.2863,0,418232,45
Xingren,25.4352,105.1907,0,417919,45
Binan,14.3333,121.0833,0,407437,181
Fenyang,37.2647,111.7775,0,416212,45
Ajdabiya,30.7556,20.2253,0,416000,130
Paju,37.8667,126.8,0,415345,120
Mataram,-8.5833,116.1167,0,408900,105
Carapicuiba,-23.5192,-46.8358,0,403183,31
Jhang city,31.2694,72.3161,0,414131,174
Tepic,21.5083,-104.8931,0,413609,145
Tepic,21.5083,-104.8931,0,413609,146
Jayapura,-2.533,140.717,0,413283,105
Rio branco,-9.9747,-67.81,0,413418,31
Toyama,36.6959,137.2137,0,413028,113
Fangting,31.1282,104.1695,0,412758,45
Sanandaj,35.3144,46.9922,0,412767,106
Delhi cantonment,28.6,77.1333,0,405633,104
Linghai,41.1676,121.3558,0,412513,45
Shorapur,16.52,76.76,0,412291,104
Toyonaka,34.7833,135.4667,0,401233,113
Sochi,43.5853,39.7203,0,411524,188
Bhagalpur,25.25,87.0,0,410210,104
Bellary,15.1,76.9167,0,410445,104
Ivanovo,57.0,41.0,0,406933,188
Kisumu,-0.0833,34.7667,0,409928,117
Augusta,33.3645,-82.0708,0,409668,240
Turkmenabat,39.0833,63.5667,0,408906,233
Zaria,11.0667,7.7,0,408198,165
Bryansk,53.25,34.3667,0,406553,188
Kumi,36.1195,128.3444,0,407880,120
Asyut,27.1833,31.1667,0,389307,65
Wanyuan,32.0691,108.0351,0,407594,45
Maracay,10.2469,-67.5958,0,407109,246
Maracay,10.2469,-67.5958,0,407109,247
Padiala,30.5667,76.6333,0,406192,104
Yuregir,36.9981,35.3439,0,407054,232
Jiexiu,37.0282,111.9103,0,406517,45
Stockton,37.9765,-121.3109,0,406822,240
Bogra,24.85,89.3667,0,400983,18
Santa fe,-31.6333,-60.7,0,405683,10
Campina grande,-7.2306,-35.8811,0,405072,31
Nagasaki,32.7447,129.8736,0,404656,113
Szczecin,53.4325,14.5481,0,403833,183
Maringa,-23.4,-51.9167,0,403063,31
Palm coast,29.5389,-81.2457,0,403834,240
Chattanooga,35.066,-85.2481,0,403233,240
Qazvin,36.2667,50.0,0,402748,106
Quilon,8.88,76.6,0,397419,104
Jundiai,-23.1858,-46.8839,0,401896,31
Hirakata,34.8167,135.65,0,396694,113
Gifu,35.4232,136.7608,0,400118,113
Khayelitsha,-34.0403,18.6778,0,391749,212
Kukatpalli,17.4849,78.4138,0,385821,104
Jiangjiafan,31.0238,111.9709,0,400000,45
Maungdaw,20.8167,92.3667,0,400000,154
Kissimmee,28.3041,-81.4169,0,399929,240
Durham,35.9792,-78.9022,0,399762,240
Dera ghazi khan,30.0331,70.64,0,399064,174
Miyazaki,31.9167,131.4167,0,397476,113
Bhatpara,22.87,88.41,0,386019,104
Hazaribagh,23.98,85.35,0,394532,104
Sandakan,5.8388,118.1173,0,396290,136
Taytay,14.5692,121.1325,0,386451,181
Hejin,35.5914,110.706,0,395527,45
Olinda,-8.0,-34.8833,0,393115,31
Thanh hoa,19.8075,105.7764,0,393294,248
Surgut,61.25,73.4333,0,395900,188
Nnewi,6.0167,6.9167,0,391227,165
Minamisuita,34.7594,135.5169,0,384953,113
Thies,14.7833,-16.9167,0,394544,199
Betsiboka,-16.95,46.83,0,394561,134
Belgorod,50.6,36.6,0,391702,188
Tangail,24.2644,89.9181,0,392300,18
Yokosuka,35.25,139.6667,0,390275,113
Nha trang,12.245,109.1917,0,392279,248
Malabon,14.66,120.96,0,380522,181
Al jahra',29.35,47.6833,0,393432,121
Yola,9.23,12.46,0,392854,165
Pasto,1.2078,-77.2772,0,392930,47
Pasto,1.2078,-77.2772,0,392930,48
Lobito,-12.3597,13.5308,0,393079,7
Al jubayl,27.0,49.6544,0,392948,170
Saurimo,-9.65,20.4,0,393000,7
Bologna,44.4939,11.3428,0,392564,111
Arlington,32.6998,-97.125,0,392304,240
Gujrat,32.5739,74.0789,0,390533,174
Ad diwaniyah,31.9892,44.9247,0,391600,107
Piracicaba,-22.7253,-47.6492,0,391449,31
Hancheng,35.4768,110.4419,0,391164,45
Karamay,45.5799,84.8892,0,391008,45
Kakinada,16.9661,82.255,0,384182,104
San-pedro,4.75,-6.6333,0,390654,54
Tieli,46.9838,128.04,0,390000,45
Cilegon,-6.0027,106.0112,0,387543,105
Darbhanga,26.17,85.9,0,380125,104
Victorville,34.5277,-117.3536,0,389060,240
Gwoza,11.0861,13.6914,0,388600,165
Saki,8.6667,3.4,0,388225,165
Tetouan,35.5667,-5.3667,0,380787,152
Aqtobe,50.2836,57.2297,0,387807,116
Biba,28.9218,30.9844,0,385528,65
Plovdiv,42.15,24.75,0,383540,33
Oyo,7.85,3.933,0,386723,165
Ilesa,7.6167,4.7167,0,384334,165
Tarlac city,15.4869,120.59,0,385398,181
Okazaki,34.9543,137.1744,0,385376,113
Sirur,18.83,74.38,0,385414,104
Cainta,14.5667,121.1167,0,376933,181
Ha'il,27.5167,41.6833,0,385257,170
Garoowe,8.4,48.4667,0,385000,211
Olomouc,49.5939,17.2508,0,384000,59
Yidu,30.388,111.4505,0,384598,45
Lianzhou,24.7868,112.3735,0,384700,45
Ceel baraf,3.2073,45.7587,0,384630,211
Florence,43.7714,11.2542,0,380948,111
Christchurch,-43.531,172.6365,0,383200,161
Nuevo laredo,27.4861,-99.5069,0,384033,145
Nuevo laredo,27.4861,-99.5069,0,384033,146
Brno,49.1925,16.6083,0,382405,59
Bawshar,23.5333,58.3833,0,383257,173
London,42.9836,-81.2497,0,383822,39
Novi sad,45.2542,19.8425,0,380000,200
Aurora,39.7083,-104.7237,0,383496,240
Gusau,12.15,6.6667,0,383162,165
Modesto,37.6375,-121.0028,0,382994,240
Kaunas,54.8972,23.8861,0,381007,132
Sardarshahr,28.4401,74.4908,0,382474,104
Zetang,29.238,91.771,0,382610,45
Las palmas,28.1272,-15.4314,0,378797,215
Ichinomiya,35.3039,136.8031,0,378681,113
Taunggyi,20.7836,97.0354,0,381639,154
Lancaster,34.6935,-118.1753,0,381732,240
Fayetteville,36.0714,-94.1661,0,381636,240
Cantonment,31.5167,74.3833,0,374872,174
Panihati,22.69,88.37,0,377347,104
Huancayo,-12.0667,-75.2167,0,378203,180
Betim,-19.9678,-44.1978,0,378089,31
Usulutan,13.35,-88.45,0,378606,66
Usulutan,13.35,-88.45,0,378606,67
Sintra,38.7992,-9.3883,0,377835,184
Chitungwiza,-17.9939,31.0481,0,371244,204
Hatay,36.2025,36.1606,0,377793,232
Iquitos,-3.75,-73.25,0,377609,180
Sivas,39.75,37.0167,0,377561,232
Helixi,30.6267,118.9861,0,376857,45
Scranton,41.4044,-75.6649,0,376974,240
Mamou,10.3833,-12.0833,0,376269,93
Mamou,10.3833,-12.0833,0,376269,94
Al kharj,24.1483,47.305,0,376325,170
Manukau city,-37.0,174.885,0,375600,161
Stoke-on-trent,53.0,-2.1833,0,372775,239
Cumana,10.45,-64.1667,0,374706,246
Cumana,10.45,-64.1667,0,374706,247
Rohtak,28.8909,76.5796,0,374292,104
Vinnytsia,49.2333,28.4833,0,371855,237
Maler kotla,30.5167,75.8833,0,374000,104
Lipa city,13.9411,121.1622,0,372931,181
Mandaue city,10.3333,123.9333,0,364116,181
Bhawana,31.5661,72.6461,0,373841,174
Khorramabad,33.4878,48.3558,0,373416,106
Ambon,-3.7,128.1667,0,372249,105
Takasaki,36.3219,139.0033,0,372639,113
Butuan,8.9534,125.5288,0,372910,181
Toyohashi,34.7692,137.3915,0,371507,113
Keelung,25.1333,121.7333,0,370155,224
Baguio city,16.4119,120.5933,0,366358,181
La florida,-33.5333,-70.5833,0,366916,43
La florida,-33.5333,-70.5833,0,366916,44
Gebze,40.8,29.4333,0,371000,232
Lengshuijiang,27.6858,111.4279,0,370300,45
Petare,10.4833,-66.8167,0,369000,246
Petare,10.4833,-66.8167,0,369000,247
Anguo,38.4177,115.3204,0,370317,45
Kita-ku,35.7528,139.7336,0,353058,113
Madan,30.3392,48.3042,0,370180,106
Panshi,42.9392,126.0561,0,370238,45
Bharatpur,27.6833,84.4333,0,369377,158
Az zubayr,30.3833,47.7,0,370000,107
Caucaia,-3.7167,-38.65,0,368918,31
Vitsyebsk,55.1917,30.2056,0,366299,20
Shinjuku,35.6939,139.7034,0,349385,113
Nicolas romero,19.5833,-99.3667,0,366602,145
Nicolas romero,19.5833,-99.3667,0,366602,146
Huichang,34.9136,112.7852,0,367113,45
Nagano,36.6486,138.1947,0,367184,113
Bauru,-22.315,-49.0608,0,366992,31
Yanjiao,39.9432,116.8036,0,363809,45
Bochum,51.4819,7.2158,0,364454,84
Tecamac,19.7131,-98.9683,0,364579,145
Tecamac,19.7131,-98.9683,0,364579,146
Anapolis,-16.3339,-48.9519,0,366491,31
Coventry!,52.4081,-1.5106,0,362690,239
Oxnard,34.1964,-119.1815,0,366330,240
Korba,22.35,82.68,0,365253,104
Cibinong,-6.485,106.842,0,363424,105
Dasarhalli,13.0465,77.513,0,349720,104
Qardho,9.5,49.0833,0,365000,211
Wonsan,39.1475,127.4461,0,363127,119
Kocaeli,40.7625,29.9175,0,363416,232
Newcastle,-27.7464,29.9328,0,363236,212
Iligan,8.23,124.25,0,363115,181
Youngstown,41.0993,-80.6463,0,363541,240
Cabuyao,14.275,121.125,0,355330,181
Kayapinar,37.94,40.19,0,362407,232
Nakano,35.7073,139.6637,0,341014,113
Utrecht,52.0833,5.1167,0,359370,159
Bengkulu,-3.7956,102.2592,0,360495,105
Orizaba,18.85,-97.1,0,355333,145
Orizaba,18.85,-97.1,0,355333,146
Blumenau,-26.9333,-49.05,0,361855,31
Montes claros,-16.7306,-43.8639,0,361915,31
Indio,33.7346,-116.2346,0,361831,240
Petion-ville,18.5128,-72.2864,0,359615,97
Petion-ville,18.5128,-72.2864,0,359615,98
Tungi,23.9,90.41,0,350000,18
Buurhakaba,2.7833,44.0833,0,360795,211
Shuanghe,30.3866,106.7756,0,360000,45
Konak,38.4189,27.1285,0,356563,232
Ash shuhada',30.6039,30.9021,0,358486,65
Pensacola,30.4413,-87.1911,0,360711,240
Umuahia,5.5333,7.4833,0,359230,165
Gedaref,14.0333,35.3833,0,354927,217
Palu,-0.895,119.8594,0,359350,105
Mardan,34.2012,72.0258,0,358604,174
Pokhara,28.2083,83.9889,0,353841,158
Mahilyow,53.9167,30.35,0,357100,20
Wudalianchi,48.6433,126.1408,0,360000,45
Hrodna,53.6667,23.8333,0,357493,20
Sungai petani,5.65,100.48,0,358499,136
Linxia chengguanzhen,35.6,103.2167,0,355968,45
Sikar,27.62,75.15,0,359293,104
Nam dinh,20.42,106.1683,0,352108,248
Vitoria,-20.2889,-40.3083,0,355875,31
Sasaram,24.95,84.03,0,358283,104
Karur,10.9601,78.0766,0,358468,104
Franca,-20.5389,-47.4008,0,358539,31
Vladimir,56.1286,40.4058,0,356168,188
Karnal,29.686,76.989,0,357334,104
Kismaayo,-0.3581,42.5453,0,358000,211
Sao vicente,-23.9633,-46.3922,0,355542,31
Kawagoe,35.9251,139.4858,0,354598,113
Villahermosa,17.9892,-92.9281,0,353577,145
Villahermosa,17.9892,-92.9281,0,353577,146
Taraz,42.9,71.3667,0,357795,116
Cubal,-13.1117,14.3672,0,357618,7
Luena,-11.7918,19.9062,0,357413,7
Ibb,13.9667,44.1667,0,350864,252
Yong'an,25.9733,117.3593,0,357000,45
Wuppertal,51.2667,7.1833,0,355004,84
Manisa,38.6306,27.4222,0,356702,232
San fernando,15.0333,120.6833,0,354666,181
Chanda,19.95,79.297,0,355739,104
Minatitlan,17.9833,-94.55,0,356020,145
Minatitlan,17.9833,-94.55,0,356020,146
Malmo,55.6058,13.0358,0,351749,219
Nizhniy tagil,57.9167,59.9667,0,355693,188
San pedro,14.3583,121.0583,0,326001,181
Cuito,-12.3833,16.9333,0,355423,7
Hongzhai,34.9857,104.5446,0,355037,45
Guediawaye,14.7833,-17.4,0,329659,199
Wakayama,34.2333,135.1667,0,353299,113
Tin shui wai,22.4608,114.0012,0,286232,101
Pavlodar,52.3,76.95,0,353930,116
Gimpo,37.7,126.6,0,352683,120
Itaquaquecetuba,-23.4864,-46.3486,0,352801,31
Nara,34.6844,135.805,0,352377,113
Van,38.4942,43.38,0,353419,232
Corrientes,-27.4833,-58.8167,0,352646,10
Neiva,2.9345,-75.2809,0,353033,47
Neiva,2.9345,-75.2809,0,353033,48
Arkhangelsk,64.55,40.5333,0,351488,188
Batangas,13.83,121.0,0,351437,181
Licheng,24.4935,110.3902,0,352472,45
Koshigaya,35.8911,139.7909,0,346768,113
Sinuiju,40.1,124.4,0,352000,119
Cabimas,10.4,-71.4333,0,351735,246
Cabimas,10.4,-71.4333,0,351735,247
Yakeshi,49.2842,120.7283,0,352173,45
Oruro,-17.9667,-67.1167,0,351802,27
Oruro,-17.9667,-67.1167,0,351802,28
Ahmadnagar,19.08,74.73,0,350859,104
Avadi,13.1097,80.0972,0,345996,104
Sarai alamgir,32.9,73.75,0,350288,174
Varna,43.2167,27.9167,0,348668,33
Gorgan,36.8386,54.4347,0,350676,106
Takatsuki,34.85,135.6167,0,347496,113
Holguin,20.8869,-76.2592,0,350191,56
Holguin,20.8869,-76.2592,0,350191,57
Qo`qon,40.5286,70.9425,0,350000,244
Semey,50.4333,80.2667,0,350201,116
Yingmen,39.9487,97.4395,0,350000,45
Cariacica,-20.2639,-40.42,0,348738,31
Palmira,3.5833,-76.25,0,349294,47
Palmira,3.5833,-76.25,0,349294,48
Tapachula,14.9,-92.2667,0,348156,145
Tapachula,14.9,-92.2667,0,348156,146
Bydgoszcz,53.1219,18.0003,0,346739,183
Antofagasta,-23.65,-70.4,0,348517,43
Antofagasta,-23.65,-70.4,0,348517,44
Anaheim,33.839,-117.8574,0,348204,240
Rajahmundry,16.98,81.78,0,341831,104
Chita,52.0333,113.5,0,347088,188
Bonita springs,26.3558,-81.7859,0,347581,240
Caruaru,-8.2828,-35.9758,0,347088,31
Nice,43.7034,7.2663,0,342669,77
Shahjanpur,27.88,79.91,0,346103,104
Antonio enes,-16.2333,39.9167,0,347175,153
Central coast,-33.3,151.2,0,346596,13
Pamukkale,37.9167,29.1167,0,346625,232
Wad medani,14.4,33.5167,0,345290,217
Oskemen,49.9833,82.6167,0,346127,116
Tanch'on,40.458,128.911,0,345876,119
Tokorozawa,35.7996,139.4686,0,341289,113
Hosur,12.7409,77.8253,0,345000,104
Serekunda,13.4333,-16.6667,0,340000,82
Greensboro,36.0956,-79.8271,0,345270,240
Kusti,13.1667,32.6667,0,345068,217
Cuddapah,14.47,78.82,0,344893,104
Simferopol,44.9484,34.1,0,341799,237
Sariyer,41.1669,29.0572,0,342503,232
Sumqayit,40.5917,49.6397,0,341200,15
Otsu,35.0167,135.85,0,342607,113
Vitoria da conquista,-14.8658,-40.8389,0,343230,31
Makiivka,48.0556,37.9611,0,343158,237
Vung tau,10.3833,107.1167,0,341552,248
Brest,52.1347,23.6569,0,340723,20
Uruapan,19.4208,-102.0628,0,334749,145
Uruapan,19.4208,-102.0628,0,334749,146
Gomez palacio,25.5611,-103.4983,0,342286,145
Gomez palacio,25.5611,-103.4983,0,342286,146
Yeosu,34.7333,127.7333,0,341994,120
Kaluga,54.5333,36.2667,0,341892,188
Meram,37.8364,32.4383,0,342315,232
Muzaffarpur,26.1225,85.3906,0,333200,104
Alwar,27.5498,76.6355,0,341422,104
Lublin,51.25,22.5667,0,339850,183
Lianran,24.9211,102.4778,0,341341,45
Buon ma thuot,12.6667,108.05,0,340000,248
Cuernavaca,18.9186,-99.2342,0,338650,145
Cuernavaca,18.9186,-99.2342,0,338650,146
Alicante,38.3453,-0.4831,0,338577,215
East london,-33.0175,27.9047,0,338627,212
Tarsus,36.9165,34.8951,0,339676,232
Matadi,-5.8167,13.4833,0,337000,51
Islip,40.7385,-73.1888,0,339596,240
Cimanggis,-6.3645,106.8591,0,324343,105
Kaesong,37.9667,126.55,0,338155,119
Beni,0.5,29.4667,0,332903,51
Sultanbeyli,40.9683,29.2617,0,327798,232
Huntsville,34.6981,-86.6412,0,339136,240
Randburg,-26.0936,28.0064,0,337053,212
Jitpur,27.6666,85.3333,0,337785,158
Beylikduzu,41.0011,28.6419,0,331525,232
Petrolina,-9.3928,-40.5078,0,337683,31
Chinju,35.2,128.0833,0,337230,120
Tangdong,25.9755,113.2302,0,337495,45
Reading,51.4542,-0.9731,0,337108,239
Sambalpur,21.47,83.97,0,335761,104
Hangu,39.232,117.777,0,332793,45
Belfast,54.5964,-5.93,0,333871,239
Shah latif town,24.8806,67.1625,0,335823,174
Iwaki,37.0505,140.8877,0,336111,113
Salamanca,20.5703,-101.1972,0,327169,145
Salamanca,20.5703,-101.1972,0,327169,146
Yingzhong,32.2381,119.8133,0,334977,45
Vina del mar,-33.0244,-71.5517,0,332875,43
Vina del mar,-33.0244,-71.5517,0,332875,44
Hirosaki,40.6031,140.4638,0,335203,113
Bielefeld,52.0211,8.5347,0,334002,84
Az zaqaziq,30.5667,31.5,0,302840,65
Nazret,8.5414,39.2689,0,324000,72
Cuenca,-2.8974,-79.0045,0,329928,64
Tampere,61.4981,23.76,0,334112,76
Bonn,50.7333,7.1,0,331885,84
Al fayyum,29.3084,30.8441,0,315940,65
Blida,36.4722,2.8333,0,331779,3
Ciudad obregon,27.4939,-109.9389,0,329404,145
Ciudad obregon,27.4939,-109.9389,0,329404,146
Uberaba,-19.7478,-47.9319,0,333783,31
Corpus christi,27.7254,-97.3767,0,333764,240
Asan,36.7833,126.9833,0,332790,120
Ribeirao das neves,-19.7669,-44.0869,0,331045,31
Soledad de graciano sanchez,22.1833,-100.9333,0,332072,145
Soledad de graciano sanchez,22.1833,-100.9333,0,332072,146
Maebashi,36.3895,139.0634,0,331849,113
Kamarhati,22.6686,88.3704,0,330211,104
Ganca,40.6828,46.3606,0,331400,15
Kendari,-3.9907,122.5086,0,331013,105
Balikesir,39.6333,27.8833,0,331788,232
Thai nguyen,21.6,105.85,0,330000,248
Asahikawa,43.7706,142.365,0,331392,113
Smolensk,54.7828,32.0453,0,329853,188
Dahuk,36.8667,43.0,0,330600,107
Wonju,37.3417,127.9208,0,330854,120
Nakuru,-0.3,36.0667,0,307990,117
Lafia,8.5,8.5167,0,330712,165
Fort wayne,41.0888,-85.1436,0,330305,240
Gungoren,41.0225,28.8717,0,289331,232
Koriyama,37.4004,140.3597,0,329706,113
Bamiantong,44.9164,130.5212,0,330000,45
Taourirt,34.4169,-2.885,0,321876,152
Rampur,28.8,79.0,0,325248,104
Debrecen,47.53,21.6392,0,328642,102
Cabanatuan city,15.4908,120.9678,0,327325,181
Markham,43.8767,-79.2633,0,328966,39
Fayetteville,35.085,-78.9772,0,328827,240
Pelotas,-31.7719,-52.3425,0,328275,31
Roodepoort,-26.1625,27.8725,0,326416,212
Volzhskiy,48.8056,44.7417,0,326055,188
Ann arbor,42.2759,-83.731,0,327814,240
Bijapur,16.83,75.71,0,327427,104
Sukabumi,-6.9181,106.9315,0,320970,105
Tharad,24.3926,71.6248,0,327289,104
Ratnagiri,16.9944,73.3,0,327120,104
Ulanhot,46.0726,122.0719,0,327081,45
Yunzhong,39.8143,113.0946,0,326849,45
Jackson,32.3157,-90.2125,0,326977,240
Cotabato,7.22,124.25,0,325079,181
Al fallujah,33.35,43.7833,0,326471,107
Kochi,33.5589,133.5314,0,325560,113
Minna,9.6139,6.5569,0,322163,165
Bielsko-biala,49.8225,19.0444,0,325000,183
Canoas,-29.92,-51.18,0,323827,31
Gwangmyeongni,37.476,126.866,0,318021,120
Cluj-napoca,46.7667,23.5833,0,324576,187
Bari,41.1253,16.8667,0,323370,111
Pucallpa,-8.3833,-74.55,0,326040,180
Kuching,1.5575,110.3439,0,325132,136
Gonder,12.6075,37.4592,0,323900,72
Kikuyu,-1.25,36.6667,0,323881,117
Mekele,13.4969,39.4769,0,323700,72
Gonaives,19.4456,-72.6883,0,324043,97
Gonaives,19.4456,-72.6883,0,324043,98
Guasave,25.5744,-108.4706,0,320000,145
Guasave,25.5744,-108.4706,0,320000,146
Naha,26.2122,127.6792,0,316048,113
Nantes,47.2181,-1.5528,0,318808,77
!binxian,35.0364,108.0764,0,323256,45
Shimoga,13.9333,75.5667,0,322650,104
Hotan,37.1,80.0167,0,322300,45
Kaiyuan,23.7147,103.2585,0,322693,45
Ciudad del este,-25.5167,-54.6167,0,320782,179
Temara,33.9267,-6.9122,0,313510,152
Antioch,37.9787,-121.796,0,322796,240
Uige,-7.6167,15.05,0,322531,7
Osh,40.5333,72.7833,0,322164,122
Cordoba,37.8845,-4.7796,0,322071,215
Camaguey,21.3839,-77.9075,0,321992,56
Camaguey,21.3839,-77.9075,0,321992,57
Mobile,30.6782,-88.1162,0,322079,240
San salvador de jujuy,-24.1833,-65.3,0,321789,10
Al kut,32.4907,45.8304,0,321521,107
Cherepovets,59.1167,37.9,0,318856,188
Lexington,38.0423,-84.4587,0,321354,240
San miguelito,9.033,-79.5,0,315019,176
San miguelito,9.033,-79.5,0,315019,177
Okene,7.55,6.2333,0,320260,165
Timisoara,45.7597,21.23,0,319279,187
Menongue,-14.6556,17.6842,0,320914,7
Junagadh,21.52,70.463,0,320250,104
Katsina,12.9889,7.6008,0,318459,165
Poltava,49.5894,34.5514,0,317847,237
Maroua,10.5971,14.3157,0,319941,38
Xiaoli,22.6782,113.2313,0,315820,45
Kaech'on,39.6986,125.9061,0,319554,119
Asan,36.35,126.9167,0,319929,120
Tehuacan,18.4617,-97.3928,0,319375,145
Tehuacan,18.4617,-97.3928,0,319375,146
Aksaray,38.3742,34.0289,0,319865,232
Attiecoube,5.3333,-4.0333,0,313135,54
Coatzacoalcos,18.15,-94.4333,0,319187,145
Coatzacoalcos,18.15,-94.4333,0,319187,146
Saransk,54.1833,45.1833,0,318841,188
Nukus,42.4667,59.6,0,319583,244
Puerto plata,19.8,-70.6833,0,318419,63
Hapur,28.7309,77.7757,0,317004,104
Zalantun,48.0033,122.7365,0,318933,45
Munster,51.9625,7.6256,0,317713,84
Trichur,10.52,76.21,0,315596,104
An nhon,13.917,109.083,0,317620,248
Taubate,-23.025,-45.5556,0,317915,31
Binangonan,14.4514,121.1919,0,313631,181
Cirebon,-6.7071,108.5574,0,316126,105
Safi,32.2833,-9.2333,0,308508,152
Mitchells plain,-34.0506,18.6181,0,310485,212
Boaco,12.4719,-85.6594,0,317000,162
Boaco,12.4719,-85.6594,0,317000,163
Asheville,35.5707,-82.5537,0,316694,240
Ca mau,9.1833,105.15,0,315270,248
Trenton,40.2237,-74.7641,0,316436,240
Toshima,35.7261,139.7167,0,297954,113
Vologda,59.2167,39.9,0,313012,188
Barddhaman,23.2333,87.8667,0,314265,104
Tanza,14.3944,120.8531,0,312116,181
Bor,6.2125,31.5608,0,315351,214
Kasur,31.1167,74.45,0,314617,174
Yakou,33.2937,113.5203,0,313828,45
Santa rosa,38.4458,-122.7067,0,314196,240
Orel,52.9686,36.0694,0,311625,188
Shahr-e qods,35.7214,51.1089,0,309605,106
Kingston upon hull,53.7444,-0.3325,0,314018,239
Mannheim,49.4878,8.4661,0,311831,84
Santa ana,33.7367,-117.8819,0,313818,240
Guaruja,-23.9936,-46.2564,0,311230,31
Playa del carmen,20.6281,-87.0755,0,304942,145
Playa del carmen,20.6281,-87.0755,0,304942,146
Pasir gudang,1.5028,103.9356,0,312499,136
Datang,22.9481,113.9276,0,310889,45
Panvel,18.9944,73.1139,0,311434,104
Lansing,42.7142,-84.5601,0,312829,240
Zarzal,4.3983,-76.0772,0,312599,47
Zarzal,4.3983,-76.0772,0,312599,48
La victoria,18.55,-69.9,0,312345,63
Port elizabeth,-33.9581,25.6,0,312392,212
Alanya,36.55,32.0,0,312319,232
Nizamabad,18.672,78.094,0,311152,104
Al `ajami,31.0959,29.7604,0,300000,65
Quy nhon,13.7667,109.2333,0,311000,248
Yakutsk,62.0272,129.7319,0,311760,188
Yokkaichi,34.965,136.6244,0,310263,113
Ponta grossa,-25.0994,-50.1583,0,311611,31
Catania,37.5,15.0903,0,311584,111
Chalco,19.2647,-98.8975,0,310130,145
Chalco,19.2647,-98.8975,0,310130,146
Henderson,36.0133,-115.0381,0,311250,240
Gwangju,37.3667,127.2833,0,310278,120
Longquan,25.9106,114.786,0,310700,45
Karlsruhe,49.0092,8.404,0,308436,84
Shahriar,35.6597,51.0592,0,309607,106
Kurgan,55.4408,65.3411,0,309285,188
Kasugai,35.2475,136.9722,0,306449,113
St. paul,44.9478,-93.1039,0,309751,240
Sariwon,38.5064,125.7597,0,307764,119
St. catharines,43.1833,-79.2333,0,309319,39
Karawang,-6.3125,107.295,0,307880,105
Lakeland,28.0557,-81.9545,0,308994,240
Niagara falls,43.06,-79.1067,0,308596,39
Oulgaret,11.957,79.7737,0,300104,104
Taboao da serra,-23.5328,-46.7994,0,293652,31
Vladikavkaz,43.04,44.6775,0,306978,188
Nghi son,19.417,105.75,0,307304,248
Juliaca,-15.4833,-70.1333,0,307417,180
Parbhani,19.27,76.78,0,307170,104
Hisar,29.15,75.7,0,307024,104
Puerto la cruz,10.2,-64.6333,0,306261,246
Puerto la cruz,10.2,-64.6333,0,306261,247
Puerto princesa,9.75,118.75,0,307079,181
Podolsk,55.4311,37.5456,0,299660,188
Meguro,35.6415,139.6983,0,286905,113
Ciudad victoria,23.7389,-99.1431,0,305155,145
Ciudad victoria,23.7389,-99.1431,0,305155,146
Ciudad santa catarina,25.6833,-100.45,0,306322,145
Ciudad santa catarina,25.6833,-100.45,0,306322,146
Santarem,-2.43,-54.72,0,306480,31
Newark,40.7245,-74.1725,0,306247,240
Vaughan,43.8333,-79.5,0,306233,39
Awasa,7.05,38.4667,0,300100,72
Oakashicho,34.65,135.0,0,299699,113
Yesilyurt,38.2961,38.2489,0,304839,232
Pekalongan,-6.8833,109.6667,0,298386,105
Pondokaren,-6.2811,106.7019,0,294996,105
Adiyaman,37.7639,38.2778,0,304615,232
Kurume,33.3167,130.5167,0,302858,113
Vila nova de gaia,41.1333,-8.6167,0,302295,184
Paulista,-7.9408,-34.8728,0,300466,31
Oaxaca,17.0606,-96.7253,0,300050,145
Oaxaca,17.0606,-96.7253,0,300050,146
Armenia,4.53,-75.68,0,301226,47
Armenia,4.53,-75.68,0,301226,48
Akita,39.72,140.1026,0,302984,113
Awka,6.2,7.0667,0,301657,165
San bernardo,-33.5833,-70.7,0,301313,43
San bernardo,-33.5833,-70.7,0,301313,44
Curepipe,-20.3188,57.5263,0,299975,143
Iksan,35.9439,126.9544,0,302310,120
Pachuca,20.1,-98.75,0,297848,145
Pachuca,20.1,-98.75,0,297848,146
Al matariyah,31.1833,32.0333,0,300000,65
Soc trang,9.6028,105.9736,0,300000,248
Bahia blanca,-38.7167,-62.2667,0,301572,10
Coacalco,19.6333,-99.0931,0,293444,145
Coacalco,19.6333,-99.0931,0,293444,146
San juan del rio,20.3833,-99.9833,0,301237,145
San juan del rio,20.3833,-99.9833,0,301237,146
Fort collins,40.5477,-105.0656,0,301596,240
Limeira,-22.565,-47.4019,0,300911,31
Popayan,2.4542,-76.6092,0,300837,47
Popayan,2.4542,-76.6092,0,300837,48
Praia grande,-24.0061,-46.4028,0,299261,31
Qianzhou,28.3185,109.7318,0,301000,45
Newcastle,54.98,-1.61,0,300196,239
Maldah,25.0119,88.1433,0,300088,104
Ciudad general escobedo,25.7933,-100.1583,0,299364,145
Ciudad general escobedo,25.7933,-100.1583,0,299364,146
Oyster bay,40.7846,-73.514,0,300743,240
Montpellier,43.6119,3.8772,0,295542,77
Phan thiet,10.9333,108.1,0,299680,248
Stockport,53.4083,-2.1494,0,295200,239
Al qunfudhah,19.1264,41.0789,0,300516,170
Bada barabil,22.12,85.4,0,300000,104
Tampico,22.2553,-97.8686,0,297284,145
Tampico,22.2553,-97.8686,0,297284,146
Bialystok,53.1353,23.1456,0,297554,183
Coatepeque,14.7,-91.8667,0,300000,92
Ash shamiyah,31.9636,44.5989,0,300000,107
Merida,8.48,-71.19,0,300000,246
Merida,8.48,-71.19,0,300000,247
Chakwal,32.9303,72.8556,0,299751,174
Murmansk,68.9706,33.075,0,298096,188
Ar raqqah,35.95,39.01,0,299824,223
Afyonkarahisar,38.7578,30.5386,0,299673,232
Bihar,25.197,85.518,0,297268,104
Jember,-8.1727,113.6873,0,298585,105
Valladolid,41.6528,-4.7236,0,297775,215
Reading,40.34,-75.9267,0,299068,240
Springfield,37.1943,-93.2916,0,298722,240
Iskenderun,36.5817,36.165,0,297943,232
Al mubarraz,25.4416,49.6642,0,298562,170
Petropolis,-22.505,-43.1789,0,298142,31
Augsburg,48.3689,10.8978,0,296478,84
Navotas,14.6667,120.9417,0,247543,181
Chernihiv,51.4939,31.2947,0,294522,237
Yangsan,35.3333,129.0333,0,297532,120
Comilla,23.45,91.2,0,296010,18
Irvine,33.6772,-117.7738,0,297868,240
Bradford,53.8,-1.75,0,293277,239
Tagum,7.4478,125.8078,0,296202,181
Espoo,60.2056,24.6556,0,297132,76
Valparaiso,-33.0461,-71.6197,0,296655,43
Valparaiso,-33.0461,-71.6197,0,296655,44
Silang,14.2306,120.975,0,295644,181
Finglas,53.4597,-6.2181,0,296214,108
Rangpur,25.75,89.2444,0,294265,18
Vigo,42.2314,-8.7124,0,293837,215
Sikandarabad,28.4512,77.6955,0,294858,104
Battalgazi,38.4228,38.3656,0,295821,232
Bali,22.65,88.34,0,293373,104
Corum,40.5455,34.957,0,294807,232
Ismailia,30.5833,32.2667,0,293184,65
Vila teixeira da silva,-12.0072,15.7792,0,294494,7
Panipat,29.3875,76.97,0,294292,104
Delmas,18.55,-72.3,0,284079,97
Delmas,18.55,-72.3,0,284079,98
Strasbourg,48.5833,7.7458,0,290576,77
Mabalacat,15.2167,120.5833,0,293244,181
Batna,35.55,6.1667,0,290645,3
Aizawl,23.7272,92.7178,0,293416,104
Tambov,52.7167,41.4333,0,290365,188
Dexing,28.958,117.7597,0,293201,45
Iasi,47.1622,27.5889,0,290422,187
Kunp'o,37.35,126.95,0,285721,120
San lorenzo,-25.34,-57.52,0,287977,179
Santa maria,14.8183,120.9563,0,289820,181
Sonpur,25.7,85.18,0,288102,104
Groznyy,43.3125,45.6986,0,291687,188
Kherson,46.6425,32.625,0,291428,237
Anchorage,61.1508,-149.1091,0,292545,240
The woodlands,30.1738,-95.5134,0,292380,240
Hong'an,47.21,123.61,0,289999,45
Resistencia,-27.4514,-58.9867,0,291720,10
Graz,47.0708,15.4386,0,289440,14
Karimnagar,18.4386,79.1288,0,289821,104
Brasov,45.6667,25.6167,0,290743,187
Sumida,35.7107,139.8015,0,270823,113
Sekondi,4.9433,-1.704,0,286248,85
South bend,41.6767,-86.2696,0,290915,240
Morioka,39.7021,141.1545,0,290553,113
Sonipat,28.99,77.022,0,289333,104
Setif,36.19,5.41,0,288461,3
Atyrau,47.1167,51.8833,0,290700,116
Ipswich,52.0594,1.1556,0,290000,239
Dewas,22.96,76.06,0,289550,104
Hulin,45.7671,132.9646,0,290000,45
Rockford,42.2596,-89.064,0,289763,240
Savannah,32.0286,-81.1821,0,289607,240
Itagui,6.1667,-75.6167,0,276744,47
Itagui,6.1667,-75.6167,0,276744,48
Croix-des-bouquets,18.5761,-72.2269,0,284812,97
Croix-des-bouquets,18.5761,-72.2269,0,284812,98
Farg`ona,40.3864,71.7864,0,288850,244
Magway,20.15,94.95,0,289247,154
Huixquilucan,19.3611,-99.3508,0,284965,145
Huixquilucan,19.3611,-99.3508,0,284965,146
Lincoln,40.8099,-96.6784,0,289136,240
Ichalkaranji,16.7,74.47,0,287570,104
Punto fijo,11.7167,-70.1833,0,287558,246
Punto fijo,11.7167,-70.1833,0,287558,247
Varzea grande,-15.65,-56.1333,0,287526,31
Sincelejo,9.295,-75.3961,0,286716,47
Sincelejo,9.295,-75.3961,0,286716,48
Ibaraki,34.8164,135.5686,0,283835,113
Katowice!,50.2667,19.0167,0,285711,183
Ar rusayfah,32.0178,36.0464,0,280000,115
Camacari,-12.6978,-38.3239,0,286919,31
Jersey city,40.7184,-74.0686,0,287146,240
San cristobal,7.7682,-72.2322,0,285872,246
San cristobal,7.7682,-72.2322,0,285872,247
Round lake beach,42.3791,-88.0811,0,287012,240
Bolton,53.578,-2.429,0,285372,239
San pablo,14.07,121.325,0,285348,181
Suzano,-23.5428,-46.3108,0,285280,31
Korhogo,9.4167,-5.6167,0,286071,54
Bhatinda,30.23,74.9519,0,285813,104
Cascavel,-24.9556,-53.4553,0,286205,31
Flint,43.0236,-83.6921,0,286324,240
Ostrava,49.8356,18.2925,0,284982,59
Tacna,-18.0147,-70.2489,0,286240,180
Shreveport,32.4653,-93.7955,0,286200,240
Al qurnah,31.0158,47.4306,0,286073,107
Jalna,19.841,75.8864,0,285577,104
Aarhus,56.1572,10.2107,0,285273,60
Constanta,44.1667,28.6333,0,283872,187
San juan sacatepequez,14.7189,-90.6442,0,284798,92
Myeik,12.4333,98.6,0,284498,154
Fukushima,37.7608,140.4747,0,284282,113
Coro,11.395,-69.6816,0,284266,246
Coro,11.395,-69.6816,0,284266,247
Bago,17.3333,96.4833,0,284179,154
Pasarkemis,-6.1703,106.53,0,273659,105
Fuquan,26.7039,107.5087,0,283904,45
Tongchuanshi,35.08,109.03,0,282258,45
Sannai,24.5984,80.8281,0,283004,104
Huozhou,36.5726,111.7176,0,282905,45
Temuco,-38.7333,-72.6667,0,282415,43
Temuco,-38.7333,-72.6667,0,282415,44
Ihosy,-22.4036,46.1258,0,283047,134
Sterlitamak,53.6333,55.95,0,280233,188
Tegal,-6.8667,109.1333,0,275789,105
Ica,-14.0667,-75.7333,0,282407,180
Lucena,13.9333,121.6167,0,278924,181
Plano,33.0502,-96.7486,0,282181,240
Jining,41.03,113.08,0,281716,45
Chuncheon,37.8667,127.7333,0,281596,120
Malard,35.6658,50.9767,0,281027,106
Pematangsiantar,2.96,99.06,0,278055,105
Satna,24.6005,80.8322,0,280222,104
Long xuyen,10.3736,105.4458,0,278658,248
Myrtle beach,33.7094,-78.8844,0,281180,240
Governador valadares,-18.85,-41.9333,0,281046,31
Petrozavodsk,61.7833,34.35,0,278551,188
Santa ana,13.995,-89.5561,0,280000,66
Santa ana,13.995,-89.5561,0,280000,67
Mau,25.9417,83.5611,0,278745,104
Companiganj,22.875,91.2833,0,279870,18
Wiesbaden,50.0825,8.24,0,278950,84
Mingaora,34.7717,72.36,0,279914,174
Davenport,41.5565,-90.6053,0,280282,240
Bukhara,39.7667,64.4333,0,280187,244
Sumbe,-11.2053,13.8417,0,279968,7
Viet tri,21.3,105.4333,0,277539,248
Sunderland,54.906,-1.381,0,277417,239
Barasat,22.72,88.48,0,278435,104
Cherkasy,49.4444,32.0597,0,276360,237
Maastricht,50.85,5.6833,0,277721,159
Corlu,41.15,27.8,0,279251,232
Kostroma,57.7681,40.9269,0,277648,188
Gyeongsan,35.8167,128.7333,0,278500,120
Ciego de avila,21.8481,-78.7631,0,278672,56
Ciego de avila,21.8481,-78.7631,0,278672,57
Mamuju,-2.6833,118.9,0,278764,105
Los alcarrizos,18.5167,-70.0167,0,272776,63
Nizhnevartovsk,60.95,76.6,0,278725,188
San mateo,14.6969,121.1219,0,273306,181
Shaowu,27.3417,117.4869,0,278000,45
Canton,40.8078,-81.3676,0,277741,240
Sfax,34.74,10.76,0,272801,231
Dinajpur,25.6167,88.65,0,276000,18
Dire dawa,9.6,41.8667,0,277000,72
