city_name,latitude,longitude,capital,population,country_id
Tokyo,35.6897,139.6922,1,37732000,112
Jakarta,-6.175,106.8275,1,33756000,104
Delhi,28.61,77.23,0,32226000,103
Guangzhou,23.13,113.26,0,26940000,44
!mumbai,19.0761,72.8775,0,24973000,103
Manila,14.5958,120.9772,1,24922000,180
Shanghai,31.1667,121.4667,0,24073000,44
Sao paulo,-23.55,-46.6333,0,23086000,30
Seoul,37.56,126.99,1,23016000,119
Mexico city,19.4333,-99.1333,1,21804000,144
Mexico city,19.4333,-99.1333,1,21804000,145
Cairo,30.0444,31.2358,1,20296000,64
New york,40.6943,-73.9249,0,18972871,239
Dhaka,23.7639,90.3889,1,18627000,17
Beijing,39.904,116.4075,1,18522000,44
Kolkata,22.5675,88.37,0,18502000,103
Bangkok,13.7525,100.4942,1,18007000,225
Shenzhen,22.535,114.054,0,17619000,44
Moscow,55.7558,37.6178,1,17332000,187
Buenos aires,-34.5997,-58.3819,1,16710000,9
Lagos,6.455,3.3841,0,16637000,164
Istanbul,41.0136,28.955,0,16079000,231
Karachi,24.86,67.01,0,15738000,173
Bangalore,12.9789,77.5917,0,15386000,103
Ho chi minh city,10.7756,106.7019,0,15136000,247
Osaka,34.6939,135.5022,0,15126000,112
Chengdu,30.66,104.0633,0,14645000,44
Tehran,35.6892,51.3889,1,14148000,105
Kinshasa,-4.325,15.3222,1,12836000,50
Rio de janeiro,-22.9111,-43.2056,0,12592000,30
Chennai,13.0825,80.275,0,12395000,103
Xi'an,34.2667,108.9,0,12328000,44
Lahore,31.5497,74.3436,0,12306000,173
Chongqing,29.55,106.5069,0,12135000,44
Los angeles,34.1141,-118.4068,0,12121244,239
Baoding,38.8671,115.4845,0,11860000,44
London,51.5072,-0.1275,1,11262000,238
Paris,48.8567,2.3522,1,11060000,76
Linyi,35.1041,118.3502,0,11018365,44
Dongguan,23.0475,113.7493,0,10646000,44
Hyderabad,17.385,78.4867,0,10494000,103
Tianjin,39.1467,117.2056,0,10368000,44
Lima,-12.06,-77.0375,1,10320000,179
Wuhan,30.5872,114.2881,0,10251000,44
Nanyang,32.9987,112.5292,0,10013600,44
Hangzhou,30.25,120.1675,0,9523000,44
Foshan,23.0292,113.1056,0,9498863,44
Nagoya,35.1833,136.9,0,9197000,112
Taipei,25.0375,121.5625,1,9078000,223
Tongshan,34.261,117.1859,0,9083790,44
Luanda,-8.8383,13.2344,1,9051000,6
Zhoukou,33.625,114.6418,0,9026015,44
Ganzhou,25.8292,114.9336,0,8970014,44
Kuala lumpur,3.1478,101.6953,1,8911000,135
Heze,35.2333,115.4333,0,8795939,44
Quanzhou,24.9139,118.5858,0,8782285,44
Chicago,41.8375,-87.6866,0,8595181,239
Nanjing,32.0608,118.7789,0,8422000,44
Jining,35.4,116.5667,0,8357897,44
Hanoi,21.0283,105.8542,1,8246600,247
Pune,18.5203,73.8567,0,8231000,103
Fuyang,32.8986,115.8045,0,8200264,44
Ahmedabad,23.03,72.58,0,8009000,103
Johannesburg,-26.2044,28.0456,0,8000000,211
Bogota,4.7111,-74.0722,1,7968095,46
Bogota,4.7111,-74.0722,1,7968095,47
Shenyang,41.8025,123.4281,0,7964000,44
Khartoum,15.5006,32.56,1,7869000,216
Shangqiu,34.4259,115.6467,0,7816831,44
Cangzhou,38.3037,116.8452,0,7544300,44
Hong kong,22.3,114.2,1,7450000,100
Shaoyang!,27.2418,111.4725,0,7370500,44
Zhanjiang,21.1967,110.4031,0,7332000,44
Yancheng,33.3936,120.1339,0,7260240,44
Hengyang,26.8968,112.5857,0,7243400,44
Riyadh,24.6333,46.7167,1,7237000,169
Zhumadian,32.9773,114.0253,0,7231234,44
Santiago,-33.4372,-70.6506,1,7171000,42
Santiago,-33.4372,-70.6506,1,7171000,43
Xingtai,37.0659,114.4753,0,7111106,44
Chattogram,22.335,91.8325,0,7000000,17
Bijie,27.3019,105.2863,0,6899636,44
Shangrao,28.4419,117.9633,0,6810700,44
Zunyi,27.705,106.9336,0,6606675,44
Surat,21.1702,72.8311,0,6538000,103
Surabaya,-7.2458,112.7378,0,6499000,104
Huanggang,30.45,114.875,0,6333000,44
Maoming,21.6618,110.9178,0,6313200,44
Nanchong,30.7991,106.0784,0,6278614,44
Xinyang,32.1264,114.0672,0,6234401,44
Madrid,40.4169,-3.7033,1,6211000,214
Baghdad,33.3153,44.3661,1,6183000,106
Qujing,25.5102,103.8029,0,6155400,44
Jieyang,23.5533,116.3649,0,6089400,44
Singapore,1.3,103.8,1,5983000,204
Prayagraj,25.4358,81.8464,0,5954391,103
Liaocheng,36.45,115.9833,0,5952128,44
Dalian,38.9,121.6,0,5871474,44
Yulin,22.6293,110.1507,0,5849700,44
Changde,29.0397,111.6839,0,5827200,44
Qingdao,36.1167,120.4,0,5818255,44
Douala,4.05,9.7,0,5768400,37
Miami,25.784,-80.2101,0,5711945,239
Nangandao,35.2992,113.8851,0,5708191,44
Pudong,31.2231,121.5397,0,5681512,44
Xiangyang,32.0654,112.1531,0,5680000,44
Dallas,32.7935,-96.7667,0,5668165,239
Houston,29.786,-95.3885,0,5650910,239
Zhengzhou,34.7492,113.6605,0,5621593,44
Lu'an,31.7542,116.5078,0,5611701,44
Dezhou,37.4513,116.3105,0,5611194,44
Jinan,36.6667,116.9833,0,5606374,44
Giza,29.987,31.2118,0,5598402,64
Zhaotong,27.3328,103.7144,0,5591000,44
Yichun,27.8041,114.383,0,5573200,44
Nairobi,-1.2864,36.8172,1,5545000,116
Guadalajara,20.6767,-103.3475,0,5525000,144
Guadalajara,20.6767,-103.3475,0,5525000,145
Philadelphia,40.0077,-75.1339,0,5512873,239
Ankara,39.93,32.85,1,5503985,231
Tai'an,36.2001,117.0809,0,5494207,44
Dazhou,31.2152,107.4947,0,5468097,44
Langfang,39.5196,116.7006,0,5464087,44
Yongzhou,26.4515,111.5953,0,5452100,44
Toronto,43.7417,-79.3733,0,5429524,38
Suihua,46.6384,126.9808,0,5418153,44
Saint petersburg,59.95,30.3167,0,5384342,187
Qiqihar,47.3398,123.9512,0,5367003,44
Suzhou,33.6333,116.9683,0,5352924,44
Monterrey,25.6667,-100.3,0,5341171,144
Monterrey,25.6667,-100.3,0,5341171,145
Belo horizonte,-19.9167,-43.9333,0,5328000,30
Weinan,34.4996,109.4684,0,5286077,44
Rangoon,16.795,96.16,1,5209541,153
Zhangzhou,24.5093,117.6612,0,5140000,44
Yuncheng,35.0304,110.998,0,5134779,44
Xianyang,34.35,108.7167,0,5096001,44
Guilin,25.2819,110.2864,0,5085500,44
Atlanta,33.7628,-84.422,0,5046555,239
Taizhou,32.4831,119.9,0,5031000,44
Kashan,33.9833,51.4333,0,5000000,105
Bozhou,33.8626,115.7742,0,4996844,44
Abidjan,5.3167,-4.0333,1,4980000,53
Suqian,33.9331,118.2831,0,4986192,44
Huaihua,27.5494,109.9592,0,4979600,44
Ji'an,27.1172,114.9793,0,4956600,44
Xiaoganzhan,30.9273,113.911,0,4921000,44
Pingdingshan,33.735,113.2999,0,4904701,44
Jiujiang,29.7048,116.0021,0,4896800,44
Alexandria,31.1975,29.8925,0,4870000,64
Mianyang,31.4669,104.7385,0,4868243,44
Sydney,-33.8678,151.21,0,4840600,12
Huanglongsi,34.795,114.345,0,4824016,44
Washington,38.9047,-77.0163,1,4810669,239
Barcelona,41.3825,2.1769,0,4800000,214
Changsha,28.1987,112.9709,0,4766296,44
Chenzhou,25.7989,113.0267,0,4744500,44
Anqing,30.5,117.0333,0,4723000,44
Jiangmen,22.5833,113.0833,0,4630300,44
Xinpu,34.5906,119.1801,0,4599360,44
Yibin,28.7596,104.64,0,4588804,44
Yangzhou,32.3912,119.4363,0,4559797,44
Melbourne,-37.8142,144.9631,0,4529500,12
Berlin,52.52,13.405,1,4473101,83
Hengshui,37.7348,115.686,0,4472000,44
Timbio,2.3445,-76.6839,0,4444444,46
Timbio,2.3445,-76.6839,0,4444444,47
Kunming,25.0433,102.7061,0,4422686,44
Yiyang,28.5833,112.3333,0,4413800,44
Guigang,23.0961,109.6092,0,4409200,44
Changchun,43.9,125.2,0,4408154,44
Jiangguanchi,34.0244,113.8201,0,4379998,44
!casablanca,33.5333,-7.5833,0,4370000,151
Meizhou,24.2998,116.1191,0,4378800,44
Zhangjiakou,40.8108,114.8811,0,4345485,44
Chifeng,42.2663,118.9223,0,4341245,44
Urumqi,43.8225,87.6125,0,4335017,44
Suzhou,31.3,120.6194,0,4330000,44
Izmir,38.42,27.14,0,4320519,231
Linfen,36.0812,111.5087,0,4316610,44
Shantou,23.3735,116.6941,0,4312192,44
Kabul,34.5253,69.1783,1,4273156,0
Mogadishu,2.0392,45.3419,1,4249083,210
Luzhou,28.8918,105.4409,0,4218427,44
Hefei,31.8639,117.2808,0,4216940,44
Boston,42.3188,-71.0852,0,4208580,239
Liuzhou,24.3264,109.4281,0,4157934,44
Zhaoqing,23.05,112.4667,0,4151700,44
Xiaoxita,30.7083,111.2803,0,4137900,44
Shijiazhuang,38.0422,114.5086,0,4098243,44
Ningbo,29.875,121.5492,0,4087523,44
Fuzhou,27.9814,116.3577,0,4047200,44
Phoenix,33.5722,-112.0892,0,4047095,239
Zhuzhou,27.8407,113.1469,0,4020800,44
Amman,31.9497,35.9328,1,4007526,114
Chuzhou,32.3062,118.3115,0,3987054,44
Jeddah,21.5433,39.1728,0,3976000,169
Qingyuan,23.6842,113.0507,0,3969473,44
Loudi,27.7378,111.9974,0,3931800,44
Binzhou,37.3806,118.0125,0,3928568,44
Deyang,31.1289,104.395,0,3877000,44
Taiyuan,37.8733,112.5425,0,3875053,44
Kano,12.0,8.5167,0,3848885,164
Wuhu,31.334,118.3622,0,3842100,44
Nanning,22.8192,108.315,0,3837978,44
Harbin,45.75,126.6333,0,3830000,44
Abuja,9.0667,7.4833,1,3770000,164
Yokohama,35.4442,139.6381,0,3757630,112
Baojishi,34.3609,107.1751,0,3738700,44
Zaozhuang,34.8667,117.55,0,3729140,44
Xiamen,24.4797,118.0819,0,3707090,44
Neijiang,29.5872,105.0635,0,3702847,44
Fuzhou,26.0769,119.2917,0,3671192,44
Baicheng,23.901,106.6194,0,3669400,44
Anshan,41.1066,122.9895,0,3645884,44
Medan,3.5894,98.6739,0,3632000,104
Yulinshi,38.2655,109.7388,0,3634750,44
Wenzhou,27.9991,120.6561,0,3604446,44
Changzhou,31.8122,119.9692,0,3601079,44
Puyang,35.7639,115.03,0,3598740,44
Jiaozuo,35.229,113.2304,0,3590700,44
Nanchang,28.6842,115.8872,0,3576547,44
Ibadan,7.3964,3.9167,0,3552000,164
Hechi,24.6928,108.085,0,3545700,44
Detroit,42.3834,-83.1024,0,3522856,239
Montreal,45.5089,-73.5617,0,3519595,38
Busan,35.18,129.075,0,3453198,119
Hohhot,40.8151,111.6629,0,3446100,44
Seattle,47.6211,-122.3244,0,3438221,239
Algiers,36.7539,3.0589,1,3415811,2
Hanzhong,33.0794,107.026,0,3416196,44
Tangshan,39.6292,118.1742,0,3399231,44
Shiyan,32.6351,110.7755,0,3398000,44
Lucknow,26.85,80.95,0,3382000,103
Siping,43.1715,124.3644,0,3385156,44
Mashhad,36.3,59.6,0,3372090,105
Boankra,6.6944,-1.4028,0,3348000,84
Changzhi,36.1953,113.097,0,3334565,44
Dubai,25.2631,55.2972,0,3331420,237
Qinzhou,21.95,108.6167,0,3304400,44
Guiyang,26.5794,106.7078,0,3299724,44
Bengbu,32.9354,117.3531,0,3296408,44
San francisco,37.7558,-122.4449,0,3290197,239
Bazhou,31.8576,106.7559,0,3283148,44
Qincheng,34.5809,105.7311,0,3262549,44
Suining,30.5098,105.5737,0,3252619,44
Wuxi,31.5667,120.2833,0,3245179,44
Leshan,29.5854,103.7575,0,3235759,44
Putian,25.4394,119.0103,0,3210714,44
Zhenjiang,32.2109,119.4551,0,3210418,44
Faisalabad,31.4167,73.0911,0,3203846,173
Guang'an,30.4673,106.6336,0,3205476,44
Tongren,27.7233,109.1885,0,3168800,44
Santa cruz,-17.7892,-63.1975,0,3151676,26
Santa cruz,-17.7892,-63.1975,0,3151676,27
Qinhuangdao,39.9398,119.5881,0,3146300,44
Tongliao,43.6172,122.264,0,3139153,44
Jinzhou,41.1144,121.1292,0,3126463,44
Heyuan,23.7503,114.6923,0,3093900,44
San diego,32.8313,-117.1222,0,3084174,239
Jaipur,26.9,75.8,0,3073350,103
Xinzhou,38.4178,112.7233,0,3067501,44
Lanzhou,36.0617,103.8318,0,3067141,44
Wuzhou,23.4833,111.3167,0,3061100,44
Athens,37.9842,23.7281,1,3041131,86
Addis ababa,9.03,38.74,1,3041002,71
Chaoyang,41.5757,120.4486,0,3044641,44
Brasilia,-15.7939,-47.8828,1,3039444,30
Taichung,24.1439,120.6794,0,3033885,223
Kuwait city,29.3697,47.9783,1,3000000,120
Budapest,47.4925,19.0514,1,2997958,101
Shaoguan,24.8011,113.5927,0,2997600,44
Shanwei,22.7664,115.3331,0,2993600,44
Quezon city,14.63,121.03,0,2960048,180
Rizhao,35.4164,119.4331,0,2968365,44
Kyiv,50.45,30.5233,1,2963199,236
Sanaa,15.3483,44.2064,1,2957000,251
Meishan,30.0575,103.8381,0,2950545,44
Incheon,37.4833,126.6333,0,2936117,119
Guatemala city,14.6099,-90.5252,1,2934841,91
Birmingham,52.48,-1.9025,0,2919600,238
Zhongshan,22.5333,113.35,0,2909633,44
Ningde,26.6617,119.5228,0,2910000,44
Weihai,37.5,122.1,0,2906548,44
Daqing,46.5979,125.008,0,2904532,44
Bursa,40.1833,29.05,0,2901396,231
Salvador,-12.9747,-38.4767,0,2886698,30
Rome,41.8931,12.4828,1,2872800,110
Haikou,20.02,110.32,0,2873358,44
La paz,-16.5,-68.15,1,2867504,26
La paz,-16.5,-68.15,1,2867504,27
Xiangtan,27.8431,112.9228,0,2864800,44
Pyongyang,39.0194,125.7381,1,2863000,118
Minneapolis,44.9635,-93.2678,0,2856952,239
Omdurman,15.65,32.4833,0,2805396,216
Malang,-7.98,112.62,0,2795209,104
Mudanjiang,44.5861,129.5997,0,2798723,44
Stuttgart,48.7775,9.18,0,2787724,83
Brooklyn,40.6501,-73.9496,0,2736074,239
Kaohsiung,22.615,120.2975,0,2733566,223
Guayaquil,-2.19,-79.8875,0,2723665,63
Lisbon,38.7253,-9.15,1,2719000,183
Longyan,25.0881,117.0244,0,2723637,44
Tieling,42.2841,123.8365,0,2717732,44
Manchester,53.4794,-2.2453,0,2705000,238
Baotou,40.6562,109.8345,0,2709378,44
Handan,36.6116,114.4894,0,2708015,44
Cawnpore,26.4499,80.3319,0,2701324,103
Dingxi,35.5806,104.6263,0,2698624,44
Nanping,26.6448,118.1728,0,2690000,44
Tampa,27.9945,-82.4447,0,2683956,239
Zigong,29.3498,104.7645,0,2678899,44
Maracaibo,10.6333,-71.6333,0,2658355,245
Maracaibo,10.6333,-71.6333,0,2658355,246
Chaozhou,23.67,116.63,0,2656600,44
Mbuji-mayi,-6.15,23.6,0,2643000,50
Denver,39.762,-104.8758,0,2650725,239
Gulou,26.0865,119.298,0,2606000,44
Weifang,36.7167,119.1,0,2636154,44
Huai'an,33.5058,119.1392,0,2632788,44
Zibo,36.7831,118.0497,0,2631647,44
Ankang,32.6877,109.0235,0,2629906,44
Baoshan,25.1211,99.169,0,2627000,44
Antananarivo,-18.9333,47.5167,1,2610000,133
Huludao,40.7094,120.8378,0,2623541,44
Munich,48.1375,11.575,0,2606021,83
Yanjiang,30.1256,104.6397,0,2593843,44
Santo domingo,18.4764,-69.8933,1,2581827,62
Sanming,26.2658,117.6302,0,2580000,44
Tashkent,41.3111,69.2797,1,2571668,243
Longba,33.535,105.349,0,2567718,44
Yangjiang,21.8556,111.9627,0,2555600,44
Jiamusi,46.8081,130.3653,0,2552097,44
Luohe,33.583,114.0109,0,2544266,44
Lincang,23.8864,100.0871,0,2536000,44
Medellin,6.2308,-75.5906,0,2529403,46
Medellin,6.2308,-75.5906,0,2529403,47
Xuanzhou,30.9475,118.7518,0,2532938,44
Yunfu,22.9242,112.0353,0,2526900,44
Shaoxing,30.0,120.5833,0,2521964,44
Yantai,37.3997,121.2664,0,2511053,44
Huizhou,23.1115,114.4152,0,2509243,44
Lishui,28.45,119.9167,0,2507396,44
Mirzapur,25.146,82.569,0,2496970,103
Hamburg,53.55,10.0,0,2484800,83
Guangyuan,32.4353,105.8398,0,2484122,44
Cali,3.4206,-76.5222,0,2471474,46
Cali,3.4206,-76.5222,0,2471474,47
Lusaka,-15.4167,28.2833,1,2467563,252
Huangshi,30.2018,115.0326,0,2471700,44
Xining,36.6239,101.7787,0,2467965,44
Ouagadougou,12.3686,-1.5275,1,2453496,33
Daegu,35.8717,128.6017,0,2461002,119
Fortaleza,-3.7275,-38.5275,0,2452185,30
Yaounde,3.8667,11.5167,1,2440462,37
Jilin,43.8519,126.5481,0,2396000,44
Dandong,40.1167,124.3833,0,2444697,44
Zhuhai,22.2769,113.5678,0,2439585,44
Lianshan,40.7523,120.828,0,2426000,44
Yingkou,40.6653,122.2297,0,2428534,44
Antalya,36.8874,30.7075,0,2426356,231
Nagpur,21.1497,79.0806,0,2405665,103
Queens,40.7498,-73.7976,0,2405464,239
Accra,5.55,-0.2,1,2388000,84
Bekasi,-6.2349,106.9923,0,2381053,104
Ghaziabad,28.67,77.42,0,2375820,103
Yuxi,24.3495,102.5432,0,2386000,44
Luoyang,34.6587,112.4245,0,2372571,44
Brisbane,-27.4678,153.0281,0,2360241,12
Anshun,26.2456,105.934,0,2353100,44
Depok,-6.394,106.8225,0,2330333,104
Shangzhou,33.868,109.9244,0,2341742,44
Huainan,32.4831,117.0164,0,2333896,44
Colombo,6.9344,79.8428,1,2323826,215
Kuaidamao,41.7302,125.9471,0,2324439,44
Baku,40.3667,49.8352,1,2300500,14
Fukuoka,33.5833,130.4,0,2286000,112
Yan'an,36.5952,109.4863,0,2282581,44
Jincheng,35.4906,112.8483,0,2279146,44
Vancouver,49.25,-123.1,0,2264823,38
Nantong,31.9829,120.8873,0,2261382,44
Tangerang,-6.1783,106.6319,0,2237006,104
Caracas,10.4806,-66.9036,1,2245744,245
Caracas,10.4806,-66.9036,1,2245744,246
Sanmenxia,34.7736,111.195,0,2234018,44
Laibin,23.7333,109.2333,0,2233900,44
Konya,37.8667,32.4833,0,2232374,231
Manaus,-3.1,-60.0167,0,2219580,30
Esfahan,32.6447,51.6675,0,2219343,105
Qinbaling,35.7278,107.64,0,2211191,44
Baltimore,39.3051,-76.6144,0,2205092,239
Ma'anshan,31.6858,118.5101,0,2202899,44
Shengli,37.45,118.4667,0,2193518,44
Gaoping,30.7824,106.1281,0,2174000,44
Taizhou,28.6583,121.4221,0,2162461,44
Harare,-17.8292,31.0522,1,2150000,203
Kowloon,22.3167,114.1833,0,2108419,100
Las vegas,36.2333,-115.2654,0,2150373,239
Havana,23.1367,-82.3589,1,2141652,55
Havana,23.1367,-82.3589,1,2141652,56
Perth,-31.9559,115.8606,0,2141834,12
Phnom penh,11.5694,104.9211,1,2129371,36
Puning,23.2993,116.1586,0,2118200,44
Huaibei,33.9562,116.789,0,2114276,44
Qingyang,24.8141,118.5792,0,2111000,44
Haiphong,20.8651,106.6838,0,2103500,247
Chongzuo,22.4167,107.3667,0,2099400,44
Rawalpindi,33.6,73.0333,0,2098231,173
Yushan,31.3867,120.9766,0,2092496,44
St. louis,38.6359,-90.2451,0,2092481,239
Kumasi,6.6667,-1.6167,0,2069350,84
Vadodara,22.3,73.2,0,2065771,103
Hezhou,24.4164,111.5478,0,2072600,44
Pingliang,35.5412,106.6819,0,2068033,44
Portland,45.5371,-122.65,0,2036875,239
Vishakhapatnam,17.7042,83.2978,0,2035922,103
Gujranwala,32.1567,74.19,0,2027001,173
Baicheng,45.6148,122.832,0,2032356,44
Gaziantep,37.0628,37.3792,0,2028563,231
Fushun,41.8708,123.8917,0,2024000,44
Riverside,33.9381,-117.3949,0,2022285,239
Bamako,12.6458,-7.9922,1,2009109,137
Quito,-0.22,-78.5125,1,2011388,63
Minsk,53.9,27.5667,1,2009786,19
Tijuana,32.525,-117.0333,0,2002000,144
Tijuana,32.525,-117.0333,0,2002000,145
Bamenda,5.9614,10.1517,0,2000000,37
Boosaaso,11.2886,49.1819,0,2000000,210
Indore,22.7167,75.8472,0,1994397,103
Sanliurfa,37.1583,38.7917,0,1985753,231
Vienna,48.2083,16.3725,1,1973403,13
Karaj,35.8272,50.9489,0,1973470,105
Kananga,-5.897,22.4488,0,1971704,50
Peshawar,34.0144,71.5675,0,1970042,173
Sapporo,43.0667,141.35,0,1961690,112
Ecatepec,19.6097,-99.06,0,1929926,144
Ecatepec,19.6097,-99.06,0,1929926,145
Pingxiang,27.6333,113.85,0,1933200,44
Orlando,28.4773,-81.337,0,1927699,239
Aleppo,36.2,37.16,0,1916781,222
Sacramento,38.5677,-121.4685,0,1924167,239
Almaty,43.2775,76.8958,0,1916822,115
San juan,18.3985,-66.061,1,1915105,184
San antonio,29.4632,-98.5238,0,1910785,239
Yinchuan,38.4795,106.2254,0,1901793,44
Thane,19.1972,72.9722,0,1886941,103
Santos,-23.9369,-46.325,0,1897551,30
Blantyre,-15.7861,35.0058,0,1895973,134
Bucharest,44.4325,26.1039,1,1883425,186
Curitiba,-25.4297,-49.2711,0,1879355,30
Multan,30.1978,71.4697,0,1871843,173
Tainan,22.9833,120.1833,0,1874686,223
Xiping,40.082,113.2981,0,1873000,44
Port harcourt,4.8242,7.0336,0,1865000,164
Warsaw,52.23,21.0111,1,1860281,182
Jixi,45.2937,130.965,0,1862165,44
Saidu sharif,34.75,72.3572,0,1860310,173
Liaoyang,41.2643,123.1772,0,1858768,44
Beihai,21.4667,109.1,0,1853227,44
Meru,0.05,37.65,0,1833000,116
Brazzaville,-4.2694,15.2714,1,1827000,49
Fuxin,42.0127,121.6486,0,1819339,44
Wuwei,37.9278,102.6329,0,1815059,44
Mersin,36.8,34.6333,0,1814468,231
Bhopal,23.25,77.4167,0,1798218,103
Lubumbashi,-11.6647,27.4794,0,1786397,50
Denpasar,-8.65,115.2167,0,1779122,104
Davao,7.0667,125.6,0,1776949,180
Shuyangzha,34.1299,118.7734,0,1770000,44
Adana,37.0,35.3213,0,1765981,231
Damascus,33.5131,36.2919,1,1754000,222
Brussels,50.8467,4.3525,1,1743000,20
Hyderabad city,25.3792,68.3683,0,1732693,173
Diyarbakir,37.91,40.24,0,1732396,231
San jose,37.3012,-121.848,0,1729879,239
Chinchvad,18.6186,73.8037,0,1729320,103
Montevideo,-34.8836,-56.1819,1,1719453,240
Montevideo,-34.8836,-56.1819,1,1719453,241
Montevideo,-34.8836,-56.1819,1,1719453,242
Pittsburgh,40.4397,-79.9763,0,1720279,239
Shuozhou,39.3408,112.4292,0,1714857,44
Cincinnati,39.1413,-84.506,0,1712287,239
Benxi,41.292,123.761,0,1709538,44
Baiyin,36.5448,104.1766,0,1708751,44
Mosul,36.34,43.13,0,1694000,106
Manhattan,40.7834,-73.9662,0,1694263,239
Caloocan city,14.65,120.97,0,1661584,180
Kampala,0.3136,32.5811,1,1680600,235
Patna,25.6,85.1,0,1684222,103
Tegucigalpa,14.1,-87.2167,1,1682725,99
Cleveland,41.4764,-81.6805,0,1683059,239
Sanzhou,30.82,108.4,0,1680000,44
Changshu,31.65,120.7333,0,1677050,44
Mecca,21.4225,39.8233,0,1675368,169
Heihe,50.2458,127.4886,0,1673899,44
Jingdezhen,29.2942,117.2036,0,1673200,44
Conakry,9.5092,-13.7122,1,1667864,92
Conakry,9.5092,-13.7122,1,1667864,93
Recife,-8.05,-34.9,0,1653461,30
Indianapolis,39.7771,-86.1458,0,1659305,239
Austin,30.3005,-97.7522,0,1659251,239
Sangereng,-6.2889,106.7181,0,1644899,104
Kansas city,39.1238,-94.5541,0,1644497,239
Zhongli,24.965,121.2168,0,1632616,223
Novosibirsk,55.0333,82.9167,0,1625631,187
Bilaspur,22.09,82.15,0,1625502,103
Semarang,-6.9667,110.4167,0,1621384,104
Ludhiana,30.91,75.85,0,1618879,103
Narayanganj,23.62,90.5,0,1572386,17
Stockholm,59.3294,18.0686,1,1611776,218
Chengtangcun,35.0833,117.15,0,1603659,44
Agra,27.18,78.02,0,1585704,103
Balandougou,13.3558,-9.5517,0,1596882,137
Agwar,27.18,78.02,0,1585705,103
Leon de los aldama,21.1167,-101.6833,0,1579803,144
Leon de los aldama,21.1167,-101.6833,0,1579803,145
Yopougon,5.3167,-4.0667,0,1571065,53
Puebla,19.0333,-98.1833,0,1576259,144
Puebla,19.0333,-98.1833,0,1576259,145
Madurai,9.9252,78.1198,0,1561129,103
Hebi,35.7497,114.2887,0,1569208,44
Cordoba,-31.4167,-64.1833,0,1565112,9
Shiraz,29.61,52.5425,0,1565572,105
Jamshedpur,22.7925,86.1842,0,1558000,103
Tabriz,38.0814,46.3006,0,1558693,105
Huzhou,30.8925,120.0875,0,1558826,44
Columbus,39.9862,-82.9855,0,1556848,239
Sofia,42.7,23.33,1,1547779,32
Kawasaki,35.5167,139.7,0,1539522,112
San jose,9.9325,-84.08,1,1543000,52
Aba,5.1167,7.3667,0,1530000,164
Palembang,-2.9861,104.7556,0,1535952,104
Zhangjiajie,29.1255,110.4844,0,1537900,44
Kobe,34.69,135.1956,0,1521707,112
Jiaxing,30.7522,120.75,0,1518654,44
Charlotte,35.2083,-80.8303,0,1516107,239
Guiping,23.4,110.0833,0,1511011,44
Lianjiang,21.6146,110.2794,0,1509400,44
Ximeicun,24.9633,118.3811,0,1508000,44
Jianguang,28.1958,115.7833,0,1507402,44
Yucheng,29.9888,103.0007,0,1507258,44
Panama city,8.9833,-79.5167,1,1500189,175
Panama city,8.9833,-79.5167,1,1500189,176
Xushan,30.1697,121.2665,0,1502000,44
Belem,-1.4558,-48.5039,0,1499641,30
Virginia beach,36.7335,-76.0435,0,1500764,239
Leizhou,20.9147,110.0806,0,1494700,44
Gwangju,35.1653,126.8486,0,1490092,119
Nasik,20.0,73.78,0,1486053,103
Porto alegre,-30.0331,-51.23,0,1484941,30
Valencia,10.1667,-68.0,0,1484430,245
Valencia,10.1667,-68.0,0,1484430,246
Onitsha,6.1667,6.7833,0,1483000,164
Abu dhabi,24.4667,54.3667,1,1483000,237
Daejeon,36.351,127.385,0,1475221,119
Zapopan,20.7167,-103.4,0,1476491,144
Zapopan,20.7167,-103.4,0,1476491,145
Bronx,40.8501,-73.8662,0,1472654,239
Yekaterinburg,56.8356,60.6128,0,1468833,187
Huazhou,32.6832,112.079,0,1468061,44
Kyoto,35.0117,135.7683,0,1464890,112
Jinhua,29.1046,119.6494,0,1463990,44
Amsterdam,52.3728,4.8936,1,1459402,158
Shuangyashan,46.6388,131.1545,0,1462626,44
Pizhou,34.3422,118.0097,0,1458038,44
El kelaa des srarhna,32.0481,-7.4083,0,1450021,151
Dakar,14.6928,-17.4467,1,1438725,198
Kharkiv,49.9925,36.2311,0,1446107,236
Yangshe,31.8775,120.5512,0,1432044,44
Guyuan,36.008,106.2782,0,1426000,44
Rui'an,27.778,120.6526,0,1424667,44
Khulna,22.8167,89.55,0,1400689,17
Muscat,23.6139,58.5922,1,1421409,172
Wenling,28.3797,121.3718,0,1416199,44
Gaozhou,21.9135,110.8481,0,1414100,44
Faridabad,28.4167,77.3,0,1404653,103
Chizhou,30.6583,117.4849,0,1402518,44
Tel aviv-yafo,32.08,34.78,0,1388400,109
Ulaanbaatar,47.9203,106.9172,1,1396288,148
Goiania,-16.6667,-49.25,0,1393575,30
Fuqing,25.7232,119.3735,0,1390487,44
Kayseri,38.7225,35.4875,0,1389680,231
Wuzhong,37.9874,106.1919,0,1382713,44
Belgrade,44.82,20.46,1,1378682,199
Pingdu,36.7833,119.9556,0,1378900,44
Milan,45.4669,9.19,0,1366180,110
Aurangabad,19.88,75.32,0,1371330,103
Copenhagen,55.6761,12.5683,1,1366301,59
Yangquan,37.8576,113.5762,0,1368502,44
Yutan,28.3147,112.554,0,1368117,44
Huangshan,29.7132,118.3151,0,1358980,44
Auckland,-36.8406,174.74,0,1346091,160
Makassar,-5.1619,119.4362,0,1338663,104
Santiago,19.4572,-70.6889,0,1343423,62
Milwaukee,43.0642,-87.9675,0,1340981,239
Rajkot,22.3,70.7833,0,1335397,103
Prague,50.0875,14.4214,1,1335084,58
Samsun,41.2903,36.3336,0,1335716,231
Liangshi,27.2578,111.7351,0,1335900,44
Barranquilla,10.9833,-74.8019,0,1326588,46
Barranquilla,10.9833,-74.8019,0,1326588,47
Saitama,35.8614,139.6456,0,1325843,112
Guarulhos,-23.4628,-46.5328,0,1324781,30
Al basrah,30.515,47.81,0,1326564,106
Mandalay,21.9831,96.0844,0,1319452,153
Juarez,31.7386,-106.487,0,1321004,144
Juarez,31.7386,-106.487,0,1321004,145
Xintai,35.91,117.78,0,1315942,44
Wusong,30.9333,117.7667,0,1311726,44
Meerut,28.98,77.71,0,1305429,103
Yushu,44.8249,126.5451,0,1304436,44
Rongcheng,26.2312,104.0966,0,1302891,44
Huazhou,21.654,110.6294,0,1302100,44
Adelaide,-34.9275,138.6,0,1295714,12
Baishan,41.9377,126.4179,0,1296127,44
Dayan,26.8808,100.2208,0,1296000,44
Haicheng,40.8523,122.7474,0,1293877,44
Tripoli,32.8872,13.1914,1,1293016,129
Jiangyin,31.9087,120.2653,0,1285785,44
Yicheng,31.3697,119.8239,0,1285785,44
Huaiyin,33.5819,119.028,0,1264000,44
Porto,41.1621,-8.622,0,1278210,183
Cacuaco,-8.8053,13.2444,0,1279488,6
Soweto,-26.2678,27.8585,0,1271628,211
Rosario,-32.9575,-60.6394,0,1276000,9
Canagatan,18.0,121.8,0,1273219,180
Helsinki,60.1708,24.9375,1,1268296,75
Jabalpur,23.1667,79.9333,0,1267564,103
Providence,41.823,-71.4187,0,1270149,239
Rucheng,32.3852,120.5634,0,1267066,44
Nizhniy novgorod,56.3269,44.0075,0,1264075,187
Ahvaz,31.3203,48.6692,0,1261042,105
Jepara,-6.5333,110.6667,0,1257912,104
Shaoyang,32.9387,119.8404,0,1253548,44
Comayaguela,14.0981,-87.2097,0,1250000,99
Laiwu,36.1833,117.6667,0,1248636,44
Sharjah,25.3575,55.3908,0,1247749,237
Kalamboli,19.2333,73.1333,0,1246381,103
Jingling,30.6667,113.1667,0,1247400,44
Kazan,55.7964,49.1089,0,1243500,187
Suwon,37.2667,127.0167,0,1234300,119
Yongcheng,33.9317,116.4459,0,1240382,44
Sumedang,-6.84,107.9208,0,1240000,104
Calgary,51.05,-114.0667,0,1239220,38
Can tho,10.0333,105.7833,0,1237300,247
Yiwu,29.3081,120.0698,0,1234015,44
Bagam,1.0833,104.0333,0,1230097,104
Beidao,34.602,105.918,0,1225000,44
Vasai,19.47,72.8,0,1222390,103
Xiangshui,26.5964,104.8314,0,1221000,44
Jacksonville,30.3322,-81.6749,0,1220191,239
Akcaabat,41.0167,39.55,0,1215351,231
Campinas,-22.9058,-47.0608,0,1213792,30
Dadukou,26.5849,101.7149,0,1214121,44
Mombasa,-4.05,39.6667,0,1208333,116
Lingcheng,22.7,110.35,0,1211637,44
Najafgarh,28.6092,76.9798,0,1203180,103
Vila velha,3.2167,-51.2167,0,1209091,30
Gazipura,23.9889,90.375,0,1199215,17
Chelyabinsk,55.15,61.4,0,1202371,187
Varanasi,25.3189,83.0128,0,1198491,103
Xinyu,27.795,114.9242,0,1202499,44
Qom,34.64,50.8764,0,1201158,105
Hargeysa,9.5631,44.0675,0,1200000,210
Zhangye,38.9355,100.4553,0,1199515,44
Hiroshima,34.3914,132.4519,0,1198021,112
Maiduguri,11.8333,13.15,0,1197497,164
Chiang mai,18.7953,98.9986,0,1198000,225
Doha,25.2867,51.5333,1,1186023,185
Maputo,-25.9667,32.5833,1,1191613,152
Mbandaka,0.0478,18.2558,0,1187837,50
Pikine,14.75,-17.4,0,1170791,198
Medina,24.47,39.61,0,1180770,169
Srinagar,34.09,74.79,0,1180570,103
Omsk,54.9667,73.3833,0,1178391,187
Dublin,53.35,-6.2603,1,1173179,107
Liaoyuan,42.8976,125.1381,0,1176239,44
Cilacap,-7.7167,109.017,0,1174964,104
Yingtan,28.2333,117.0,0,1175000,44
Bandar lampung,-5.45,105.2667,0,1166761,104
Samara,53.2028,50.1408,0,1169719,187
Guankou,28.1417,113.625,0,1168056,44
Ulsan,35.55,129.3167,0,1166033,119
Dhanbad,23.7998,86.4305,0,1162472,103
Dingzhou,38.5158,114.9845,0,1165182,44
Lianyuan,27.6961,111.6659,0,1162928,44
Rongcheng,29.8239,112.9019,0,1162770,44
Kaiyuan,36.0656,113.8153,0,1160000,44
Nay pyi taw,19.7475,96.115,1,1160242,153
Zhuji,29.7169,120.2314,0,1157938,44
Kigali,-1.9536,30.0606,1,1156663,188
Bukavu,-2.5,28.8667,0,1133000,50
Leiyang,26.4179,112.8457,0,1151554,44
Bafoussam,5.4667,10.4167,0,1146000,37
Yichun,47.7235,128.8893,0,1148126,44
Benin city,6.3333,5.6222,0,1147188,164
Rostov,47.2333,39.7,0,1137704,187
Xiantao,30.3833,113.4,0,1140100,44
Amritsar,31.64,74.86,0,1132383,103
Callao,-12.0333,-77.1333,0,1129854,179
Salt lake city,40.7776,-111.9311,0,1135344,239
Aligarh,27.88,78.08,0,1131160,103
Shagamu,6.8333,3.65,0,1132270,164
Yingchuan,34.1511,113.4733,0,1131896,44
Ciudad nezahualcoyotl,19.4081,-99.0186,0,1109363,144
Ciudad nezahualcoyotl,19.4081,-99.0186,0,1109363,145
Tbilisi,41.7225,44.7925,1,1118035,82
Guwahati,26.1722,91.7458,0,1116267,103
Ufa,54.7261,55.9475,0,1115560,187
Fes,34.0433,-5.0033,0,1112072,151
Sao luis,-2.5283,-44.3044,0,1108975,30
Bien hoa,10.95,106.8167,0,1104000,247
!!sevilla,37.24,-5.99,0,1100000,214
N'djamena,12.11,15.05,1,1092066,41
Mexicali,32.6633,-115.4678,0,1102342,144
Mexicali,32.6633,-115.4678,0,1102342,145
Nezahualcoyotl,19.4006,-99.0148,0,1077208,144
Nezahualcoyotl,19.4006,-99.0148,0,1077208,145
Ikare,7.5167,5.75,0,1099931,164
Nashville,36.1715,-86.7842,0,1098486,239
Tamale,9.4075,-0.8533,0,1095808,84
Xibeijie,39.737,98.5049,0,1095947,44
Yuyao,30.0372,121.1546,0,1095000,44
Haora,22.58,88.3294,0,1077075,103
Hanchuan,30.652,113.8274,0,1092700,44
Gongzhuling,43.5036,124.8088,0,1092692,44
Krasnoyarsk,56.0089,92.8719,0,1083865,187
Cologne,50.9364,6.9528,0,1083498,83
Bujumbura,-3.3833,29.3667,1,1075000,34
Bishkek,42.8747,74.6122,1,1074075,121
Zhufeng,36.0,119.4167,0,1081960,44
Sao goncalo,-22.8269,-43.0539,0,1077687,30
Yerevan,40.1814,44.5144,1,1075800,10
Ezhou,30.3972,114.8842,0,1079353,44
Nur-sultan,51.1472,71.4222,1,1078362,115
Tongjin,37.2333,127.2,0,1076369,119
Nouakchott,18.0858,-15.9785,1,1077169,141
Xiashi,30.5333,120.6833,0,1076199,44
Ranchi,23.36,85.33,0,1073440,103
Taixing,32.1724,120.0142,0,1073921,44
Vereeniging,-26.6736,27.9319,0,1074000,211
Gwalior,26.2215,78.178,0,1069276,103
Zhongwei,37.5139,105.1884,0,1067336,44
Goyang,37.65,126.8,0,1061929,119
Oslo,59.9133,10.7389,1,1064235,171
Vijayawada,16.5193,80.6305,0,1048240,103
Chandigarh,30.75,76.78,0,1055450,103
Edmonton,53.5344,-113.4903,0,1062643,38
Sendai,38.2682,140.8694,0,1061177,112
Raleigh,35.8324,-78.6429,0,1062018,239
Mizhou,35.99,119.3801,0,1060000,44
Tunis,36.8064,10.1817,1,1056247,230
Xishan,27.6609,113.4946,0,1060000,44
Barquisimeto,10.0678,-69.3467,0,1059092,245
Barquisimeto,10.0678,-69.3467,0,1059092,246
Hegang,47.3139,130.2775,0,1058665,44
Voronezh,51.6717,39.2106,0,1050602,187
Perm,58.0139,56.2489,0,1048005,187
Changwon,35.2708,128.6631,0,1046054,119
Fangchenggang,21.6,108.3,0,1046068,44
Shouguang,36.8833,118.7333,0,1039205,44
Bogor,-6.5966,106.7972,0,1030720,104
Cartagena,10.4,-75.5,0,1036412,46
Cartagena,10.4,-75.5,0,1036412,47
Matola,-25.9667,32.4667,0,1032197,152
Jodhpur,26.28,73.02,0,1033918,103
Memphis,35.1087,-89.9663,0,1034498,239
Ogbomoso,8.1333,4.25,0,1032000,164
Rangapukur,25.56,89.25,0,1031388,17
Managua,12.1544,-86.2738,1,1028808,161
Managua,12.1544,-86.2738,1,1028808,162
Sanya,18.2533,109.5036,0,1031396,44
Shymkent,42.3167,69.5958,0,1028673,115
Wutong,30.6326,120.5474,0,1029754,44
Niamey,13.515,2.1175,1,1026848,163
Shubra al khaymah,30.1286,31.2422,0,1025569,64
Linhai,28.8523,121.1409,0,1028813,44
Denizli,37.7667,29.0833,0,1027782,231
Maceio,-9.6658,-35.735,0,1025360,30
Monrovia,6.3133,-10.8014,1,1021762,128
Wafangdian,39.6271,121.9972,0,1024876,44
Zhongxiang,31.169,112.5853,0,1022514,44
Louisville,38.1663,-85.6485,0,1022630,239
Odesa,46.4775,30.7326,0,1017699,236
Thu duc,10.8266,106.7609,0,1013795,247
Volgograd,48.7086,44.5147,0,1015586,187
Islamabad,33.6931,73.0639,1,1014825,173
Port-au-prince,18.5333,-72.3333,1,987310,96
Port-au-prince,18.5333,-72.3333,1,987310,97
Xinyi,22.3559,110.9369,0,1013900,44
Raipur,21.25,81.63,0,1010087,103
Arequipa,-16.4,-71.5333,0,1008290,179
Richmond,37.5295,-77.4756,0,1008069,239
Zaoyang,32.1287,112.7581,0,1004741,44
Buffalo,42.9018,-78.8487,0,1004655,239
Shuizhai,33.4433,114.8994,0,1003698,44
Xingyi,25.091,104.9011,0,1004132,44
Kota,25.18,75.83,0,1001694,103
Quetta,30.1833,67.0,0,1001205,173
Kathmandu,27.7172,85.324,1,975453,157
Ottawa,45.4247,-75.695,1,989567,38
Lilongwe,-13.9833,33.7833,1,989318,134
Asmara,15.3228,38.925,1,963000,68
Freetown,8.4844,-13.2344,1,951000,201
Freetown,8.4844,-13.2344,1,951000,202
Vientiane,17.9667,102.6,1,948487,122
Jerusalem,31.7784,35.2066,1,919438,109
Riga,56.9489,24.1064,1,920643,123
Bangui,4.3733,18.5628,1,889231,40
Dushanbe,38.5367,68.78,1,863400,224
Lome,6.1319,1.2228,1,837437,227
Ashgabat,37.95,58.3833,1,828100,232
Zagreb,45.8167,15.9833,1,809268,54
Libreville,0.3903,9.4542,1,797003,80
Cotonou,6.3667,2.4333,1,762000,22
Pretoria,-25.7461,28.1881,1,741651,211
Vilnius,54.6872,25.28,1,708203,131
Winnipeg,49.8844,-97.1464,0,705244,38
Quebec city,46.8139,-71.2081,0,705103,38
Port moresby,-9.4789,147.1494,1,700000,177
Skopje,41.9961,21.4317,1,640000,168
Djibouti,11.5883,43.145,1,603900,60
Kingston,17.9714,-76.7931,1,580000,111
Rabat,34.0209,-6.8416,1,572717,151
San salvador,13.6989,-89.1914,1,567698,65
San salvador,13.6989,-89.1914,1,567698,66
The hague,52.08,4.31,1,548320,158
Asuncion,-25.3,-57.6333,1,524190,178
Juba,4.85,31.6,1,525953,213
Maseru,-29.31,27.48,1,519186,125
Maseru,-29.31,27.48,1,519186,126
Maseru,-29.31,27.48,1,519186,127
Bissau,11.85,-15.5667,1,492004,94
Valletta,35.8983,14.5125,1,480134,138
Bratislava,48.1439,17.1097,1,475503,206
Bratislava,48.1439,17.1097,1,475503,207
Kitchener,43.4186,-80.4728,0,470015,38
Manama,26.225,50.5775,1,436000,16
Tallinn,59.4372,24.7453,1,438341,69
Beirut,33.8869,35.5131,1,361366,124
Cape town,-33.9253,18.4239,1,433688,211
Tirana,41.3289,19.8178,1,418495,1
Sarajevo,43.8564,18.4131,1,419957,28
Wellington,-41.2889,174.7772,1,418500,160
Banjul,13.4531,-16.5775,1,413397,81
Halifax,44.6475,-63.5906,0,403131,38
Canberra,-35.2931,149.1269,1,381488,12
Yamoussoukro,6.8161,-5.2742,1,355573,53
Victoria,48.4283,-123.3647,0,335696,38
Nicosia,35.1725,33.365,1,330000,5
Windhoek,-22.57,17.0836,1,322500,154
Windhoek,-22.57,17.0836,1,322500,155
Saint-denis,-20.8789,55.4481,1,315080,167
Porto-novo,6.4972,2.605,1,300000,22
Sucre,-19.0475,-65.26,1,300000,26
Sucre,-19.0475,-65.26,1,300000,27
Ljubljana,46.0514,14.5061,1,286745,208
Nassau,25.0781,-77.3386,1,274400,15
Bloemfontein,-29.1167,26.2167,1,256185,211
Fort-de-france,14.6,-61.0667,1,253995,140
New delhi,28.6139,77.209,1,249998,103
Gaborone,-24.6581,25.9122,1,231626,29
Paramaribo,5.8522,-55.2039,1,223757,217
Dili,-8.5536,125.5783,1,222323,226
Georgetown,6.8058,-58.1508,1,200500,95
Gibraltar,36.1333,-5.35,1,187083,85
Malabo,3.75,8.7833,1,187302,67
Suva,-18.1416,178.4419,1,185913,74
Noumea,-22.2758,166.458,1,182341,159
Male,4.1753,73.5089,1,133019,136
Port louis,-20.1644,57.5042,1,149194,142
Podgorica,42.4413,19.2629,1,150977,149
Willemstad,12.108,-68.935,1,150000,57
Bern,46.9481,7.4475,1,133883,219
Bern,46.9481,7.4475,1,133883,220
Bern,46.9481,7.4475,1,133883,221
Gitega,-3.4283,29.925,1,135467,34
Reykjavik,64.1467,-21.94,1,135688,102
Luxembourg,49.6117,6.1319,1,132780,132
Papeete,-17.5334,-149.5667,1,131695,78
Praia,14.918,-23.509,1,127832,35
Sri jayewardenepura kotte,6.9108,79.8878,1,115826,215
Bridgetown,13.0975,-59.6167,1,110000,18
Moroni,-11.699,43.256,1,111329,48
Thimphu,27.4722,89.6361,1,104000,24
Thimphu,27.4722,89.6361,1,104000,25
Mbabane,-26.3208,31.1617,1,94874,70
Honiara,-9.4319,159.9556,1,84520,209
Port of spain,10.6667,-61.5167,1,81142,229
Castries,14.0167,-60.9833,1,70000,191
Putrajaya,2.93,101.69,1,67964,135
Cayenne,4.933,-52.33,1,61550,77
Sao tome,0.3361,6.7306,1,56166,197
Port-vila,-17.7333,168.3167,1,51437,244
Bandar seri begawan,4.8903,114.9422,1,50000,31
Monaco,43.7333,7.4167,1,36371,147
Apia,-13.8333,-171.75,1,37708,195
Tarawa,1.3382,173.0176,1,28802,117
Oranjestad,12.5186,-70.0358,1,34980,11
Saint helier,49.1858,-2.11,1,33522,113
Mamoudzou,-12.7794,45.2272,1,32057,143
Majuro,7.0833,171.3833,1,30000,139
Douglas,54.145,-4.482,1,27938,108
George town,19.2866,-81.3744,1,27704,39
Victoria,-4.6167,55.45,1,26450,200
Kingstown,13.1578,-61.225,1,25000,194
Andorra la vella,42.5,1.5,1,22615,4
Saint john's,17.1167,-61.85,1,22219,8
Nuku`alofa,-21.1333,-175.2,1,23221,228
Nuuk,64.1814,-51.6942,1,18326,87
Belmopan,17.2514,-88.7669,1,17222,21
Roseau,15.3014,-61.3883,1,16582,61
Basseterre,17.3,-62.7333,1,13220,190
Torshavn,62.0,-6.7833,1,13326,73
Road town,18.4167,-64.6167,1,12603,248
Pago pago,-14.274,-170.7046,1,12576,3
Grand turk,21.4664,-71.136,1,5801,233
Marigot,18.0706,-63.0847,1,5700,192
Palikir,6.9178,158.185,1,6227,146
Funafuti,-8.5167,179.2,1,6025,234
Vaduz,47.141,9.521,1,5668,130
Lobamba,-26.4465,31.2064,1,5800,70
Avarua??,-21.207,-159.771,1,5445,51
Saint george's,12.05,-61.75,1,4315,88
San marino,43.9346,12.4473,1,4040,196
Tifariti,26.158,-10.567,0,3000,151
Philipsburg,18.0237,-63.0458,1,1894,205
Capitol hill,15.2137,145.7546,1,2500,170
Stanley,-51.7,-57.85,1,2213,72
Hamilton,32.2942,-64.7839,1,854,23
Vatican city,41.904,12.453,1,825,98
Alofi,-19.056,-169.921,1,1611,165
Basse-terre,16.0104,-61.7055,1,307,89
Hagta,13.4745,144.7504,1,1051,90
Brades,16.7928,-62.2106,1,391,150
Yaren,-0.5477,166.9209,1,\N,156
Gustavia,17.8958,-62.8508,1,\N,189
Ngerulmud,7.5006,134.6242,1,271,174
Saint-pierre,46.7811,-56.1764,1,\N,193
The valley,18.2167,-63.05,1,\N,7
Mata-utu,-13.2825,-176.1736,1,\N,250
Kingston,-29.0569,167.9617,1,\N,166
Adamstown,-25.0667,-130.0833,1,\N,181
Flying fish cove,-10.4167,105.7167,1,\N,45
King edward point,-54.2833,-36.5,1,\N,212
Bareilly,28.364,79.415,0,1000000,103
Quang ha,15.9333,108.2667,0,1000000,247
Domaa-ahenkro,7.2833,-2.8833,0,1000000,84
Oklahoma city,35.4676,-97.5136,0,994284,239
Xingcheng,24.1681,115.6669,0,993000,44
Dongtai,32.8534,120.3037,0,990306,44
Yingcheng,24.1878,113.4042,0,986400,44
Chiba,35.6073,140.1064,0,981738,112
Al mijlad,11.0339,27.74,0,985000,216
Pekanbaru,0.5092,101.4453,0,983356,104
Luocheng,22.7645,111.5745,0,984100,44
Dnipro,48.4675,35.04,0,980948,236
Danyang,31.9948,119.575,0,980662,44
Gode,5.9527,43.5516,0,980782,71
Natal,-6.9838,-60.2699,0,980588,30
Nada,19.5,109.5833,0,977700,44
Zamboanga city,6.9042,122.0761,0,977234,180
Kirkuk,35.4667,44.3167,0,975000,106
Bridgeport,41.1918,-73.1954,0,975078,239
Naples,40.8333,14.25,0,966144,110
Wuchuan,21.4283,110.7749,0,972400,44
Huilong,31.8131,121.6574,0,972525,44
Morelia,19.7683,-101.1894,0,962555,144
Morelia,19.7683,-101.1894,0,962555,145
Malaga,36.7194,-4.42,0,967250,214
Cebu city,10.32,123.75,0,964169,180
Al mansurah,31.05,31.3833,0,960423,64
Coimbatore,11.0168,76.9558,0,959823,103
Santo domingo este,18.4855,-69.8734,0,948855,62
Setagaya,35.6466,139.6532,0,940509,112
Songnam,37.4333,127.15,0,948757,119
Taishan,22.2486,112.785,0,953900,44
Teresina,-5.0949,-42.8042,0,953172,30
Solapur,17.68,75.92,0,951558,103
Tangier,35.7767,-5.8039,0,947952,151
Kermanshah,34.3142,47.065,0,952285,105
Krasnodar,45.0333,38.9667,0,948827,187
Baidoa,3.1167,43.65,0,950000,210
Gaalkacyo,6.7697,47.4308,0,950000,210
Anqiu,36.3619,119.1072,0,947723,44
Feicheng,36.186,116.772,0,946627,44
Seberang jaya,5.4,100.4667,0,946092,135
El alto,-16.5047,-68.1633,0,943000,26
El alto,-16.5047,-68.1633,0,943000,27
Kitakyushu,33.8833,130.8833,0,935084,112
Meishan,34.1736,112.839,0,936000,44
Khartoum north,15.6333,32.6333,0,936349,216
Kisangani,0.5153,25.1911,0,935977,50
Aguascalientes,21.876,-102.296,0,934424,144
Aguascalientes,21.876,-102.296,0,934424,145
Marrakech,31.63,-8.0089,0,928850,151
Donetsk,48.0028,37.8053,0,929063,236
Trujillo,-8.112,-79.0288,0,919899,179
New orleans,30.0687,-89.9288,0,925443,239
Taihe,30.8706,105.3784,0,924531,44
Trichinopoly,10.7903,78.7047,0,916857,103
Xin'an,34.3662,118.3369,0,920628,44
Taihecun,45.768,131.0063,0,920471,44
Kashgar,39.4681,75.9938,0,920000,44
Naucalpan de juarez,19.4753,-99.2378,0,913681,144
Naucalpan de juarez,19.4753,-99.2378,0,913681,145
Cankaya,39.9244,32.8856,0,914501,231
Santiago de cuba,20.0217,-75.8294,0,917340,55
Santiago de cuba,20.0217,-75.8294,0,917340,56
Owerri,5.4833,7.0333,0,908109,164
Padang,-0.95,100.3531,0,914970,104
Qingzhou,36.6967,118.4797,0,914047,44
Lichuan,30.2965,108.9378,0,913700,44
Santiago del estero,-27.7833,-64.2667,0,911506,9
Daye,30.1003,114.9699,0,909724,44
Hengzhou,22.6896,109.2674,0,908400,44
Fort worth,32.7817,-97.3474,0,908469,239
Hartford,41.7661,-72.6834,0,907046,239
Esenyurt,41.047,28.658,0,891120,231
Campo grande,-20.4839,-54.615,0,906092,30
Zhuanghe,39.6896,122.9664,0,905852,44
Bobo-dioulasso,11.1833,-4.2833,0,903887,33
Ad dammam,26.4333,50.1,0,903312,169
Quzhou,28.9545,118.8763,0,902767,44
Lhasa,29.6534,91.1719,0,902500,44
Jiaozhou,36.2481,119.9625,0,900500,44
Bunia,1.5667,30.25,0,900666,50
Taguig city,14.52,121.05,0,886722,180
Cancun,21.1606,-86.8475,0,888797,144
Cancun,21.1606,-86.8475,0,888797,145
Merida,20.97,-89.62,0,892363,144
Merida,20.97,-89.62,0,892363,145
Yangchun,22.1717,111.7846,0,891800,44
Dengtalu,36.1386,114.1066,0,887000,44
Moradabad,28.8389,78.7769,0,887871,103
Antipolo,14.5842,121.1763,0,887399,180
Abeokuta,7.1608,3.3483,0,888924,164
Bucheon,37.5,126.7833,0,867678,119
Zhoushan,29.9887,122.2049,0,882932,44
Tiruppur,11.1085,77.3411,0,877778,103
Natal,-5.7833,-35.2,0,877662,30
Chihuahua,28.6353,-106.0889,0,878062,144
Chihuahua,28.6353,-106.0889,0,878062,145
Klang,3.0333,101.45,0,878000,135
As sulaymaniyah,35.5572,45.4356,0,878146,106
Gurgaon,28.456,77.029,0,876824,103
Turin,45.0792,7.6761,0,870952,110
Tucson,32.1541,-110.8787,0,875284,239
Hai'an,32.532,120.4604,0,874334,44
Ar ramadi,33.4258,43.2992,0,874543,106
Laiyang,36.9758,120.7136,0,874127,44
Sale,34.0333,-6.8,0,850403,151
Jalandhar,31.2569,75.4432,0,873725,103
Marseille,43.2964,5.37,0,870731,76
Bucaramanga,7.1333,-73.0,0,870752,46
Bucaramanga,7.1333,-73.0,0,870752,47
Kaifeng chengguanzhen,34.8519,114.3481,0,872000,44
Ikeja,6.6186,3.3426,0,861300,164
Eskisehir,39.7767,30.5206,0,871187,231
Saltillo,25.4231,-100.9919,0,864431,144
Saltillo,25.4231,-100.9919,0,864431,145
Gaomi,36.3833,119.75,0,868715,44
Liverpool,53.4075,-2.9919,0,864122,238
Ipoh,4.5972,101.075,0,866772,135
Oran,35.6969,-0.6331,0,852000,2
Portsmouth,50.8058,-1.0872,0,855679,238
Southampton,50.9025,-1.4042,0,855569,238
Hermosillo,29.0989,-110.9542,0,855563,144
Hermosillo,29.0989,-110.9542,0,855563,145
Cochabamba,-17.3833,-66.1667,0,856198,26
Cochabamba,-17.3833,-66.1667,0,856198,27
Weichanglu,37.1792,119.9333,0,859424,44
Shache,38.4261,77.25,0,851374,44
Wuxi,26.5895,111.8481,0,853197,44
Leping,28.9632,117.1203,0,852800,44
Hailun,47.4585,126.9632,0,850000,44
Macheng,31.1817,115.0189,0,849090,44
Akure,7.25,5.195,0,847903,164
Ilorin,8.5,4.55,0,847582,164
Yuci,37.6823,112.7281,0,840000,44
Saratov,51.5333,46.0167,0,845300,187
Erbil,36.1912,44.0092,0,846000,106
Iguacu,-22.74,-43.47,0,844583,30
Pasig city,14.575,121.0833,0,803159,180
Dehui,44.5333,125.7,0,839786,44
Kalkaji devi,28.5485,77.2513,0,824177,103
Bhubaneshwar,20.27,85.84,0,837737,103
Honolulu,21.3294,-157.846,0,835291,239
Tongchuan,34.9057,108.9422,0,834437,44
Cheongju,36.6333,127.4833,0,833276,119
Chengxiang,31.4515,121.1043,0,831113,44
Thessaloniki,40.6403,22.9347,0,824676,86
Warri,5.5167,5.75,0,830106,164
Sakai,34.5733,135.4831,0,824408,112
Pointe-noire,-4.8,11.85,0,829134,49
Rongjiawan,29.1409,113.1087,0,826000,44
Mediouna,33.45,-7.51,0,822851,151
Butterworth,5.3992,100.3639,0,821652,135
Renqiu,38.7094,116.1008,0,822455,44
Xindi,29.8182,113.4653,0,819446,44
Bhayandar,19.29,72.85,0,809378,103
Wu'an,36.6941,114.1847,0,819000,44
Sao bernardo do campo,-23.7,-46.55,0,816925,30
Mandvi,19.3,72.85,0,814655,103
Barinas,8.6333,-70.2,0,816264,245
Barinas,8.6333,-70.2,0,816264,246
Zijinglu,34.7513,112.9854,0,807857,44
Gaoyou,32.7847,119.4432,0,811800,44
Culiacan,24.8069,-107.3939,0,808416,144
Culiacan,24.8069,-107.3939,0,808416,145
Hejian,38.4451,116.0897,0,810306,44
Yiyang,26.4103,112.3913,0,810447,44
Puxi,35.2125,114.735,0,809535,44
Androtsy,-24.1,46.3,0,809313,133
Mcallen,26.2252,-98.2467,0,809002,239
Qingping,34.538,113.3796,0,797200,44
Omaha,41.2627,-96.0529,0,806485,239
Joao pessoa,-7.12,-34.88,0,801718,30
Dongyang,29.2785,120.2282,0,804398,44
Queretaro,20.5875,-100.3928,0,801940,144
Queretaro,20.5875,-100.3928,0,801940,145
Krakow,50.0614,19.9372,0,800653,182
George town,5.4144,100.3292,0,794313,135
Abaete,-19.1583,-45.4522,0,800000,30
Palermo,2.8917,-75.4375,0,800000,46
Palermo,2.8917,-75.4375,0,800000,47
Valencia,39.47,-0.3764,0,792492,214
Xigaze,29.25,88.8833,0,798153,44
El paso,31.8476,-106.43,0,794344,239
Seyhan,36.9831,35.3328,0,792536,231
Niigata,37.9161,139.0364,0,790646,112
Hempstead,40.6629,-73.6089,0,791018,239
Leeds,53.8003,-1.5497,0,789194,238
Hamamatsu,34.7108,137.7275,0,788211,112
Bagcilar,41.0344,28.8564,0,734369,231
Xiangxiang,27.7389,112.5223,0,787216,44
Bilbao,43.2569,-2.9236,0,775000,214
Chaohucun,31.6783,117.7353,0,782000,44
Fuyang,30.0553,119.95,0,771000,44
Homs,34.7333,36.7167,0,775404,222
Kucukcekmece,41.0,28.8,0,770317,231
Lubango,-14.9167,13.5,0,776249,6
Zouping,36.8625,117.7424,0,774517,44
Khujand,40.2833,69.6333,0,770000,224
San luis potosi,22.1511,-100.9761,0,772828,144
San luis potosi,22.1511,-100.9761,0,772828,145
Nottingham,52.9533,-1.15,0,768638,238
Cencheng,22.9297,111.0186,0,772113,44
Dali,25.6808,100.3003,0,771128,44
Hamhung,39.9167,127.5333,0,768551,118
Korla,41.7259,86.1746,0,770000,44
Rajshahi,24.3667,88.6,0,763580,17
Erzurum,39.9086,41.2769,0,767848,231
Frankfurt,50.1106,8.6822,0,764104,83
Al `ayn,24.2075,55.7447,0,766936,237
Songzi,30.1772,111.7732,0,765911,44
Albuquerque,35.1054,-106.6465,0,765693,239
Patiala,30.34,76.38,0,763280,103
Laixi,36.8667,120.5333,0,762900,44
Bahawalpur,29.3956,71.6836,0,762111,173
Zhongba,31.7761,104.7406,0,762140,44
Kaduna,10.5167,7.4333,0,760084,164
Qingnian,36.8494,115.7061,0,760781,44
San pedro sula,15.5,-88.0333,0,760182,99
Qamdo,31.1375,97.1777,0,760966,44
Xinhualu,34.3962,113.7249,0,758079,44
Nerima,35.7355,139.6517,0,742463,112
Guangshui,31.6189,113.8229,0,755910,44
Pietermaritzburg,-29.6167,30.3833,0,750845,211
Baardheere,2.3333,42.2833,0,755500,210
Tlajomulco de zuniga,20.4736,-103.4431,0,727750,144
Tlajomulco de zuniga,20.4736,-103.4431,0,727750,145
Samarinda,-0.5,117.1378,0,753370,104
Changhua,24.0667,120.5333,0,750000,223
Sizhan,39.0099,106.3694,0,751389,44
Ciudad guayana,8.3667,-62.65,0,751331,245
Ciudad guayana,8.3667,-62.65,0,751331,246
Cucuta,7.8942,-72.5039,0,750000,46
Cucuta,7.8942,-72.5039,0,750000,47
Dhulia,20.8997,74.7697,0,750000,103
Burco,9.5279,45.5345,0,750211,210
Licheng,31.4174,119.4786,0,749522,44
Ota-ku,35.5613,139.716,0,737187,112
Thiruvananthapuram,8.4875,76.9525,0,743691,103
Tyumen,57.15,65.5333,0,744554,187
Nampula,-15.1167,39.2667,0,743000,152
Zaporizhzhia,47.85,35.1175,0,741717,236
Kyaukse,21.6131,96.1303,0,741071,153
Chengguan,35.5256,113.6976,0,740435,44
Kumamoto,32.8031,130.7078,0,738385,112
Nehe,48.48,124.8738,0,740000,44
Osogbo,7.7667,4.5667,0,731000,164
Cabinda,-5.56,12.19,0,739182,6
Kerman,30.2833,57.0833,0,738374,105
Zunhua,40.1881,117.9593,0,737011,44
Rochester,43.168,-77.6162,0,737309,239
Valenzuela,14.7,120.98,0,714978,180
Orumiyeh,37.5486,45.0675,0,736224,105
Wugang,26.7345,110.6293,0,734870,44
Shuangqiao,35.0833,112.5833,0,733000,44
Tshikapa,-6.4167,20.8,0,732000,50
Sao jose dos campos,-23.1789,-45.8869,0,729737,30
Comodoro rivadavia,-45.8647,-67.4808,0,730266,9
Cagayan de oro,8.4833,124.65,0,728402,180
Tondo,14.617,120.967,0,654220,180
Langzhong,31.5504,105.9938,0,728935,44
Qian'an,40.0059,118.6973,0,728160,44
Lviv,49.8425,24.0322,0,724314,236
Sarasota,27.3387,-82.5432,0,727388,239
Reynosa,26.0922,-98.2778,0,725793,144
Reynosa,26.0922,-98.2778,0,725793,145
Santo andre,-23.6572,-46.5333,0,721368,30
An najaf,32.0,44.33,0,724700,106
Sagamihara,35.5667,139.3667,0,722973,112
Guli,28.9008,120.0284,0,723490,44
Mississauga,43.6,-79.65,0,721599,38
Concepcion,-36.8282,-73.0514,0,719944,42
Concepcion,-36.8282,-73.0514,0,719944,43
Okayama,34.65,133.9167,0,720043,112
Anlu,31.2575,113.6783,0,720000,44
Fresno,36.783,-119.7939,0,719558,239
Changsha,22.3762,112.6877,0,717700,44
Torreon,25.5394,-103.4486,0,716672,144
Torreon,25.5394,-103.4486,0,716672,145
Shihezi,44.3054,86.0804,0,717000,44
Enugu,6.4528,7.5111,0,715774,164
Jaboatao,-8.1803,-35.0014,0,702621,30
Tulsa,36.1283,-95.9042,0,715983,239
Yanggok,37.6333,127.2167,0,713321,119
Yatou,37.1653,122.4867,0,714211,44
Edogawa,35.7066,139.8683,0,697932,112
Allentown,40.5961,-75.4756,0,714136,239
Ribeirao preto,-21.1783,-47.8067,0,711825,30
Xichang,27.8983,102.2706,0,712434,44
Latakia,35.5167,35.7833,0,700000,222
Bhiwandi,19.2967,73.0631,0,709665,103
City of paranaque,14.47,121.02,0,689992,180
Dasmarinas,14.3294,120.9367,0,703141,180
Dayton,39.7805,-84.2003,0,709300,239
Saharanpur,29.964,77.546,0,705478,103
Warangal,17.9689,79.5941,0,704570,103
Soledad,10.9167,-74.75,0,698852,46
Soledad,10.9167,-74.75,0,698852,47
Osasco,-23.5328,-46.7919,0,694844,30
Dashiqiao,40.6328,122.5021,0,704891,44
Birmingham,33.5279,-86.7971,0,704676,239
Nampo,38.7333,125.4,0,703317,118
Shiliguri,26.71,88.43,0,701489,103
Banjarmasin,-3.32,114.5925,0,692793,104
Sha tin,22.3802,114.1898,0,640000,100
Salem,11.65,78.15,0,693236,103
General santos,6.1167,125.1667,0,697315,180
Cocody,5.35,-3.9667,0,692583,53
Hamah,35.1333,36.75,0,696863,222
Pendik,40.8747,29.235,0,693599,231
Bacoor,14.4624,120.9645,0,664625,180
Vellore,12.9165,79.1325,0,696110,103
Shishi,24.7355,118.6434,0,693000,44
Guadalupe,25.6775,-100.2597,0,691931,144
Guadalupe,25.6775,-100.2597,0,691931,145
Adachi,35.7749,139.8044,0,682326,112
Qianxi,27.0284,106.0327,0,695947,44
Tolyatti,53.5089,49.4222,0,693072,187
Macau,22.2006,113.5461,0,568700,79
Bauchi,10.3158,9.8442,0,693700,164
Hamilton,43.2567,-79.8692,0,693645,38
Lodz,51.7769,19.4547,0,690422,182
Miluo chengguanzhen,28.8049,113.0745,0,692080,44
Gaizhou,40.4019,122.3499,0,691595,44
Karbala',32.6167,44.0333,0,690100,106
Leling,37.7333,117.2167,0,689867,44
Jianshe,34.2189,113.7693,0,687130,44
Shizuoka,34.9756,138.3828,0,685589,112
Charleston,32.8168,-79.9687,0,685517,239
Jingcheng,32.0058,120.2547,0,684360,44
Kochi,9.97,76.28,0,677381,103
Mar del plata,-38.0,-57.55,0,682605,9
Cape coral,26.6443,-81.9957,0,682773,239
Tasikmalaya,-7.3161,108.1975,0,678027,104
Rasht,37.2808,49.5831,0,679995,105
Xinmin,41.9952,122.8224,0,680000,44
Shanhu,29.5908,120.8176,0,679762,44
Zhongshu,27.8116,106.4133,0,679624,44
Gorakhpur,26.7637,83.4039,0,673446,103
Zaragoza,41.65,-0.8833,0,675301,214
Wroclaw,51.11,17.0325,0,672929,182
Acapulco de juarez,16.8636,-99.8825,0,673478,144
Acapulco de juarez,16.8636,-99.8825,0,673478,145
Bahar,34.9072,48.4414,0,673405,105
Kumul,42.8193,93.5151,0,673383,44
Murcia,37.9861,-1.1303,0,672773,214
Pinghu,30.7005,121.0104,0,671834,44
Palermo,38.1157,13.3613,0,668405,110
Guankou,30.9933,103.624,0,671200,44
Tlaquepaque,20.6167,-103.3167,0,664193,144
Tlaquepaque,20.6167,-103.3167,0,664193,145
Songyang,34.4603,113.028,0,668592,44
Ch'ongjin,41.7833,129.7667,0,667929,118
Puyang chengguanzhen,35.7004,114.98,0,666322,44
Qionghu,28.8417,112.3595,0,667104,44
Zhaodong,46.0635,125.9773,0,666532,44
Narela,28.8527,77.0929,0,661994,103
Huambo,-12.7767,15.7347,0,665564,6
Wenchang,31.054,116.9507,0,664455,44
Villavicencio,4.15,-73.6333,0,664148,46
Villavicencio,4.15,-73.6333,0,664148,47
Shulan,44.4079,126.9429,0,663403,44
Tlalnepantla,19.5367,-99.1947,0,653410,144
Tlalnepantla,19.5367,-99.1947,0,653410,145
Catia la mar,10.6,-67.0333,0,661897,245
Catia la mar,10.6,-67.0333,0,661897,246
Sargodha,32.0836,72.6711,0,659862,173
Al hufuf,25.3833,49.5833,0,660788,169
Durango,24.025,-104.6675,0,654876,144
Durango,24.025,-104.6675,0,654876,145
Jalingo,8.9195,11.3264,0,660213,164
Bouake,7.6833,-5.0167,0,659233,53
Mazatlan,23.2167,-106.4167,0,658354,144
Mazatlan,23.2167,-106.4167,0,658354,145
San jose del monte,14.8139,121.0453,0,651813,180
Ansan,37.3167,126.8333,0,652800,119
Abomey-calavi,6.4486,2.3556,0,655965,22
Lingbao chengguanzhen,34.5221,110.8786,0,656571,44
Hwasu-dong,37.1997,126.8314,0,655350,119
Sialkot city,32.4925,74.5311,0,655852,173
Hue,16.4667,107.5792,0,652572,247
Bulawayo,-20.17,28.58,0,653337,203
Xiping,25.6005,103.8166,0,652604,44
Sanhe,39.9808,117.0701,0,652042,44
Ch'onan,36.8167,127.1667,0,651661,119
Contagem,-19.9319,-44.0539,0,648766,30
Jieshou,33.2605,115.3618,0,650870,44
Selcuklu,37.8814,32.4922,0,648850,231
Erer sata,9.5667,41.3833,0,649000,71
Honcho,35.6946,139.9826,0,641499,112
Dusseldorf,51.2333,6.7833,0,645923,83
Izhevsk,56.85,53.2167,0,646277,187
Guntur,16.3008,80.4428,0,647508,103
!guixi,28.2861,117.2083,0,647240,44
Sorocaba,-23.5017,-47.4581,0,644919,30
Yildirim,40.11,29.0821,0,643681,231
Petaling jaya,3.0972,101.6444,0,638516,135
Tengyue,25.0208,98.4972,0,644765,44
Wuxue,29.8518,115.5539,0,644247,44
Rasulpur,28.57,77.32,0,637272,103
Bhavnagar,21.76,72.15,0,643365,103
Brahmapur,19.315,84.7941,0,634220,103
Qufu,35.6,116.9833,0,640498,44
Gaobeidian,39.3257,115.8678,0,640280,44
Ruiming,25.8833,116.0333,0,640600,44
Columbia,34.0378,-80.9036,0,640502,239
Concord,37.9722,-122.0016,0,640270,239
Noida,28.57,77.32,0,637272,103
Gold coast,-28.0167,153.4,0,638090,12
Xinshi,31.0236,113.1079,0,636776,44
Ta`izz,13.5789,44.0219,0,615467,251
Aracaju,-10.9167,-37.05,0,632744,30
Jeonju,35.8167,127.15,0,631532,119
Bhangar,22.58,88.42,0,632107,103
Jin'e,29.3395,105.2868,0,633210,44
Barnaul,53.3333,83.75,0,633301,187
Makati city,14.5567,121.0214,0,629616,180
Rotterdam,51.9167,4.5,0,631155,158
Changping,40.2248,116.1944,0,614821,44
Benghazi,32.1167,20.0667,0,631555,129
Kryvyi rih,47.9086,33.3433,0,629695,236
Halwan,29.8453,31.3333,0,619293,64
Colorado springs,38.8674,-104.7605,0,628808,239
Suohe,34.7879,113.392,0,626700,44
Chimalhuacan,19.4167,-98.9,0,614453,144
Chimalhuacan,19.4167,-98.9,0,614453,145
Xinxing,39.8734,124.1453,0,627475,44
Bhilai,21.3667,81.7167,0,625700,103
Mangalore,12.902,74.8253,0,623841,103
Port-bouet,5.2667,-3.9,0,618795,53
Zhuangyuan,37.3056,120.8275,0,626683,44
Glasgow,55.8611,-4.25,0,626410,238
Namangan,41.0011,71.6683,0,626120,243
Ulyanovsk,54.3167,48.3667,0,624518,187
Tan an,10.905,106.6994,0,618984,247
Irkutsk,52.2833,104.2833,0,623736,187
Bhilai,21.21,81.38,0,624700,103
Nagercoil,8.1833,77.4119,0,622759,103
Jos,9.9167,8.8903,0,622802,164
Pontianak,-0.0206,109.3414,0,618388,104
Bazhou,39.1235,116.386,0,622975,44
Turpan,42.9512,89.1895,0,622903,44
Villa nueva,14.5314,-90.5964,0,618397,91
Las pinas city,14.45,120.98,0,606293,180
Springfield,42.1155,-72.5395,0,620494,239
Knoxville,35.9692,-83.9496,0,619925,239
Meihekou,42.5279,125.678,0,618251,44
Jurong,31.9579,119.1595,0,617706,44
Feira de santana,-12.25,-38.95,0,617528,30
Khabarovsk,48.4833,135.0667,0,616242,187
Zhugang,28.1277,121.2288,0,616346,44
Leipzig,51.34,12.375,0,615081,83
Xinji,37.9423,115.2118,0,615919,44
Serang,-6.12,106.1503,0,613356,104
Jambi,-1.59,103.61,0,612162,104
Kandahar,31.62,65.7158,0,614254,0
San miguel de tucuman,-26.8167,-65.2167,0,605767,9
Gothenburg,57.7075,11.9675,0,607882,218
Yaroslavl,57.6167,39.85,0,608079,187
Baton rouge,30.442,-91.1311,0,610751,239
Zhangshu,28.0667,115.5375,0,610424,44
Vladivostok,43.1333,131.9,0,606589,187
Ogden,41.2279,-111.9682,0,608259,239
Kuantan,3.8167,103.3333,0,607778,135
Raurkela,22.2492,84.8828,0,600000,103
Cuttack,20.5236,85.7881,0,606007,103
Ar rayyan,25.25,51.4,0,605712,185
Haifa,32.8192,34.9992,0,600000,109
Malanje,-9.5333,16.35,0,604215,6
Bacolod,10.6765,122.9509,0,600783,180
Zhuozhou,39.4887,115.9918,0,603535,44
Grand rapids,42.9619,-85.6562,0,604311,239
Uberlandia,-18.9231,-48.2886,0,604013,30
Albany,42.6664,-73.7987,0,604077,239
Tianchang,32.6853,119.0041,0,602840,44
Kawaguchi,35.8077,139.7241,0,593353,112
Itabashi,35.7512,139.7093,0,581337,112
Suginami-ku,35.6995,139.6364,0,583609,112
Cimahi,-6.8712,107.5548,0,586580,104
Tuxtla,16.7528,-93.1167,0,598710,144
Tuxtla,16.7528,-93.1167,0,598710,145
Garoua,9.3,13.4,0,600000,37
Hafr al batin,28.4342,45.9636,0,600000,169
Tumkur,13.34,77.1,0,599078,103
Balikpapan,-1.2768,116.8277,0,598043,104
Durban,-29.8833,31.05,0,595061,211
Kagoshima,31.6,130.55,0,593754,112
Al hillah,23.4895,46.7564,0,594605,169
Makhachkala,42.9833,47.4833,0,592976,187
Sihui,23.3448,112.6956,0,593400,44
Irapuato,20.6667,-101.35,0,592953,144
Irapuato,20.6667,-101.35,0,592953,145
Brampton,43.6833,-79.7667,0,593638,38
Luocheng,30.9793,104.28,0,591115,44
Mbale,1.0806,34.175,0,586300,235
Pereira,4.8143,-75.6946,0,590554,46
Pereira,4.8143,-75.6946,0,590554,47
Bakersfield,35.3529,-119.0359,0,590845,239
Uvira,-3.4,29.15,0,590000,50
Dortmund,51.5167,7.4667,0,587696,83
Chuxiong,25.0461,101.5436,0,588620,44
Mission viejo,33.6096,-117.6551,0,588540,239
Zahedan,29.4964,60.8628,0,587730,105
New haven,41.3113,-72.9246,0,587648,239
Shah alam,3.0722,101.5167,0,584340,135
Wenlan,23.3989,103.3631,0,585976,44
Cuiaba,-15.5958,-56.0969,0,585367,30
Shangzhi,45.2116,127.962,0,585386,44
Essen,51.4508,7.0131,0,582415,83
Botou,38.074,116.57,0,584308,44
Mymensingh,24.7539,90.4031,0,576722,17
Anyang,37.3833,126.9333,0,573296,119
Genoa,44.4111,8.9328,0,580097,110
Durgapur,23.55,87.32,0,581409,103
Port sudan,19.6167,37.2167,0,579942,216
Al mafraq,32.3399,36.2052,0,580000,114
Puente alto,-33.6167,-70.5667,0,573935,42
Puente alto,-33.6167,-70.5667,0,573935,43
Dehra dun,30.345,78.029,0,578420,103
At ta'if,21.2751,40.4062,0,579970,169
Wancheng,18.8,110.4,0,578600,44
Hachioji,35.6664,139.316,0,575721,112
Xiulin,29.7211,112.4037,0,577022,44
Fu'an,27.1,119.6333,0,577000,44
Tomsk,56.4886,84.9522,0,572740,187
Tonala,20.6167,-103.2333,0,569913,144
Tonala,20.6167,-103.2333,0,569913,145
Juiz de fora,-21.7619,-43.3494,0,573285,30
Worcester,42.2705,-71.8079,0,573573,239
Kolwezi,-10.7167,25.4667,0,572942,50
Chapra,25.7848,84.7274,0,567123,103
Bristol,51.4536,-2.5975,0,567111,238
Luofeng,37.359,120.396,0,570898,44
Lingyuan,41.2407,119.3957,0,570660,44
Irbid,32.55,35.85,0,569068,114
Al mahallah al kubra,30.9686,31.1636,0,535278,64
Wencheng,19.6167,110.75,0,568900,44
Bremen,53.0833,8.8,0,566573,83
Ciudad bolivar,8.1219,-63.55,0,567953,245
Ciudad bolivar,8.1219,-63.55,0,567953,246
Orenburg,51.7667,55.1,0,564773,187
Shenzhou,38.0005,115.5541,0,566087,44
Asansol,23.68,86.99,0,563917,103
Kuiju,36.8528,119.3904,0,564501,44
Zhenzhou,32.2739,119.1619,0,564021,44
Surakarta,-7.5667,110.8167,0,552118,104
Dresden,51.05,13.74,0,561922,83
Kolhapur,16.6917,74.2333,0,561489,103
Benguela,-12.55,13.4167,0,561775,6
Ensenada,31.8578,-116.6058,0,557430,144
Ensenada,31.8578,-116.6058,0,557430,145
Kemerovo,55.3667,86.0667,0,558973,187
Lanxi,29.2167,119.4722,0,560514,44
Dangyang,30.8258,111.791,0,560000,44
Faridpur,23.602,89.833,0,557632,17
Herat,34.3419,62.2031,0,556205,0
Luanzhou,39.7396,118.6978,0,554315,44
Hamadan,34.8064,48.5161,0,554406,105
Novokuznetsk,53.7667,87.1333,0,552105,187
Nellore,14.45,79.99,0,547621,103
Palma,39.5667,2.65,0,550000,214
Chiclayo,-6.763,-79.8366,0,552508,179
Nanded,19.15,77.3,0,550439,103
Ajmer,26.4499,74.6399,0,551101,103
Al hudaydah,14.8022,42.9511,0,548433,251
Kimhae,35.2342,128.8811,0,550758,119
Provo,40.2457,-111.6457,0,551645,239
Rustenburg,-25.6667,27.2428,0,549575,211
Amravati,20.9258,77.7647,0,549370,103
Poznan,52.4083,16.9336,0,546859,182
Huanghua,38.371,117.3329,0,548507,44
Muntinlupa city,14.38,121.05,0,543445,180
Londrina,-23.31,-51.1628,0,548249,30
Nansana,0.3639,32.5286,0,532800,235
Tabuk,28.3972,36.5789,0,547957,169
Heroica matamoros,25.8797,-97.5042,0,541979,144
Heroica matamoros,25.8797,-97.5042,0,541979,145
Akron,41.0798,-81.5219,0,546549,239
Samarkand,39.6547,66.9758,0,546303,243
Xingcheng,40.6189,120.7205,0,546176,44
Kaiyuan,42.538,124.0371,0,545624,44
Hannover,52.3667,9.7167,0,542668,83
Valledupar,10.4833,-73.25,0,544134,46
Valledupar,10.4833,-73.25,0,544134,47
Fengcheng,40.4543,124.0646,0,543933,44
Ixtapaluca,19.3186,-98.8822,0,542211,144
Ixtapaluca,19.3186,-98.8822,0,542211,145
Ghulja,43.9,81.35,0,542507,44
City of calamba,14.2167,121.1667,0,539671,180
Ananindeua,-1.3658,-48.3719,0,540410,30
Xiangyang,34.2999,108.4816,0,541554,44
Fuding,27.2,120.2,0,542000,44
An nasiriyah,31.0439,46.2575,0,541600,106
Al hillah,32.4833,44.4333,0,541034,106
Ibague,4.4333,-75.2333,0,541101,46
Ibague,4.4333,-75.2333,0,541101,47
Ryazan,54.63,39.7425,0,537622,187
Kassala,15.45,36.4,0,536009,216
Tripoli,34.4367,35.8344,0,530000,124
Chang'an,29.4761,113.448,0,537500,44
Koto-ku,35.6728,139.8173,0,523117,112
Naberezhnyye chelny,55.7,52.3333,0,533839,187
Aksu,41.185,80.2904,0,535657,44
Salta,-24.7833,-65.4167,0,535303,9
Astrakhan,46.35,48.035,0,532504,187
Gulbarga,17.329,76.825,0,533587,103
Cadaado,6.1403,46.6256,0,534023,210
Lyon,45.76,4.84,0,522969,76
Wuhai,39.6844,106.8158,0,532902,44
Mingguang,32.7816,117.9899,0,532732,44
Antwerp,51.2178,4.4003,0,529247,20
Yazd,31.8822,54.3397,0,529673,105
Touba,14.8667,-15.8833,0,529176,198
Ardabil,38.2425,48.29,0,529374,105
Bikaner,28.0167,73.3119,0,529007,103
Agartala,23.8333,91.2833,0,522613,103
Ndola,-12.9667,28.6333,0,528330,252
Himeji,34.8167,134.6833,0,527596,112
Palm bay,27.9631,-80.6593,0,528322,239
Tultitlan de mariano escobedo,19.645,-99.1694,0,520557,144
Tultitlan de mariano escobedo,19.645,-99.1694,0,520557,145
Ailan mubage,43.908,81.2777,0,526745,44
Bandar `abbas,27.1833,56.2667,0,526648,105
Bac ninh,21.1833,106.05,0,520000,247
Ciudad apodaca,25.7817,-100.1886,0,523370,144
Ciudad apodaca,25.7817,-100.1886,0,523370,145
Santa teresa del tuy,10.2333,-66.65,0,525321,245
Santa teresa del tuy,10.2333,-66.65,0,525321,246
Maipu,-33.5167,-70.7667,0,521627,42
Maipu,-33.5167,-70.7667,0,521627,43
Penza,53.2,45.0,0,523726,187
Soacha,4.5872,-74.2214,0,522442,46
Soacha,4.5872,-74.2214,0,522442,47
Al qatif,26.556,49.996,0,524182,169
Port said,31.2625,32.3061,0,524433,64
Loni,28.75,77.28,0,516082,103
Yucheng,36.9329,116.6403,0,522878,44
Sevastopol,44.605,33.5225,0,522057,236
Meknes,33.895,-5.5547,0,520428,151
Mixco,14.6338,-90.6146,0,517505,91
Arak,34.0917,49.6892,0,520944,105
Pohang,36.0322,129.365,0,520305,119
Longzhou,30.32,112.23,0,520000,44
Anda,46.4078,125.3252,0,520000,44
Jinghong,22.0057,100.7948,0,519935,44
Sheffield,53.3808,-1.4703,0,518090,238
Utsunomiya,36.5551,139.8826,0,518197,112
Suez,29.9667,32.55,0,516959,64
Nuremberg?,49.4539,11.0775,0,515543,83
Surrey,49.19,-122.8489,0,517887,38
Heshan,22.7697,112.9578,0,516500,44
Ujjain,23.17,75.79,0,515215,103
Jiaji,19.2431,110.4642,0,515700,44
Santa marta,11.2419,-74.2053,0,515556,46
Santa marta,11.2419,-74.2053,0,515556,47
Joinvile,-26.3204,-48.8437,0,515288,30
Beining,41.5961,121.7928,0,514898,44
Des moines,41.5725,-93.6105,0,514654,239
Hai duong,20.9397,106.3306,0,507469,247
Carrefour,18.5344,-72.4094,0,511345,96
Carrefour,18.5344,-72.4094,0,511345,97
Maturin,9.7423,-63.1889,0,514046,245
Maturin,9.7423,-63.1889,0,514046,246
Homyel',52.4453,30.9842,0,510300,19
Leicester,52.6344,-1.1319,0,508916,238
Yanji,42.9044,129.5067,0,513072,44
Macapa,0.033,-51.0653,0,512902,30
Yicheng,31.7117,112.2551,0,512530,44
Ulhasnagar,19.22,73.15,0,506098,103
Al `ashir min ramadan,30.3065,31.7415,0,511987,64
Lipetsk,52.6167,39.6,0,510439,187
Al `amarah,31.8333,47.15,0,511500,106
Bhilwara,25.35,74.63,0,509483,103
Encheng,22.1879,112.3131,0,509700,44
Murrieta,33.5719,-117.1909,0,509526,239
Aden,12.8,45.0333,0,507355,251
Kitwe,-12.8167,28.2,0,504194,252
Matsuyama,33.8333,132.7667,0,506743,112
Jhansi,25.4486,78.5696,0,507000,103
Pingtung,22.6761,120.4942,0,503530,223
Lapu-lapu city,10.3127,123.9488,0,497604,180
Matsudo,35.7876,139.9032,0,497514,112
Monteria,8.75,-75.8833,0,505334,46
Monteria,8.75,-75.8833,0,505334,47
Ichikawa,35.7219,139.9311,0,496657,112
Nagqu,31.4766,92.0569,0,504838,44
Imus,14.4297,120.9367,0,496794,180
Hsinchu,24.8167,120.9833,0,499348,223
Kimberley,-28.7383,24.7639,0,500757,211
Jammu,32.73,74.87,0,502197,103
Belas,-8.9983,13.265,0,500000,6
Talatona,-8.9167,13.1833,0,500000,6
Ile-ife,7.4667,4.5667,0,501952,164
Purnea,25.778,87.476,0,496830,103
Kirov,58.6,49.65,0,501468,187
Mykolaiv,46.975,31.995,0,498748,236
Meicheng,30.6412,116.5689,0,500292,44
Tinnevelly,8.7136,77.7567,0,497826,103
Niteroi,-22.8833,-43.1036,0,496696,30
Farah,32.3436,62.1194,0,500000,0
Sukkur,27.7061,68.8483,0,499900,173
Oujda-angad,34.6867,-1.9114,0,494252,151
Taozhou,30.8956,119.411,0,499132,44
Marka,1.6833,44.75,0,499000,210
Higashi-osaka,34.6794,135.6008,0,490819,112
Johor bahru,1.4556,103.7611,0,497097,135
Hongjiang,27.1167,109.95,0,498100,44
Bello,6.3333,-75.5667,0,495483,46
Bello,6.3333,-75.5667,0,495483,47
Chimbote,-9.0745,-78.5936,0,497875,179
Duisburg,51.4347,6.7625,0,495885,83
Qaraghandy,49.8028,73.1056,0,497777,115
Mesa,33.4015,-111.7178,0,497752,239
Toulouse,43.6045,1.444,0,493465,76
Likasi,-10.9833,26.7333,0,495000,50
Dengtacun,41.4237,123.3203,0,496122,44
Lembok,-8.565,116.351,0,495651,104
Zhijiang,30.4271,111.7506,0,495995,44
Chengjiao,35.4043,114.0593,0,495744,44
Beipiao,41.802,120.7621,0,496164,44
Suoluntun,45.2279,124.8432,0,495900,44
Staten island,40.5834,-74.1496,0,495747,239
Kota bharu,6.1333,102.25,0,491237,135
Ciudad lopez mateos,19.55,-99.2833,0,489937,144
Ciudad lopez mateos,19.55,-99.2833,0,489937,145
Celaya,20.5222,-100.8122,0,494304,144
Celaya,20.5222,-100.8122,0,494304,145
Vinh,18.6667,105.6667,0,490000,247
Duyun,26.2672,107.5143,0,493574,44
Los mochis,25.7835,-108.9937,0,490000,144
Los mochis,25.7835,-108.9937,0,490000,145
`ajman,25.4136,55.4456,0,490035,237
Nyala,12.05,24.8833,0,492984,216
Larkana,27.5583,68.2111,0,490508,173
Wichita,37.6895,-97.3443,0,491916,239
Nishinomiya-hama,34.7376,135.3416,0,487010,112
Cheboksary,56.1333,47.25,0,489498,187
Yuanping,38.7299,112.7134,0,491213,44
Toledo,41.6638,-83.5827,0,490832,239
Yueqing,28.1188,120.9621,0,488980,44
Edinburgh,55.9533,-3.1892,0,488050,238
Belgaum,15.85,74.5,0,488157,103
Tula,54.2,37.6167,0,485221,187
Gdansk,54.3475,18.6453,0,486022,182
Shahe,36.8622,114.502,0,486329,44
Serra,-20.1289,-40.3078,0,485376,30
Brookhaven,40.832,-72.9517,0,485984,239
Gaoping,35.7911,112.9259,0,484862,44
Dunhua,43.3667,128.2333,0,483811,44
Az zarqa',32.0833,36.1,0,481300,114
Sylhet,24.9,91.8667,0,479837,17
Kaihua,23.3715,104.2437,0,481505,44
Caerdydd,51.4817,-3.1792,0,479000,238
Jamnagar,22.47,70.07,0,479920,103
Fuyuan,48.3614,134.2875,0,480000,44
Gaya,24.75,85.01,0,474093,103
Florianopolis,-27.6122,-48.4853,0,477798,30
Chiniot,31.7194,72.9842,0,477781,173
Jiannan,31.3446,104.1994,0,477868,44
Oita,33.2333,131.6067,0,477186,112
Berbera,10.4356,45.0164,0,478000,210
Kaliningrad,54.7003,20.4531,0,475056,187
Nangong,37.3606,115.3803,0,476096,44
Ambattur,13.1143,80.1548,0,466205,103
Katlehong,-26.3333,28.15,0,467890,211
Kurashiki,34.5833,133.7667,0,474862,112
Barura,23.375,91.0583,0,473590,17
San juan,-31.5342,-68.5261,0,471389,9
Vila velha,-20.3364,-40.2936,0,472762,30
Mazar-e sharif,36.7,67.1167,0,469247,0
Shekhupura,31.7111,73.9878,0,473129,173
Worthing,50.8147,-0.3714,0,474485,238
Piura,-5.2,-80.6333,0,473025,179
Mandaluyong city,14.58,121.03,0,425758,180
Kartal,40.8872,29.19,0,461155,231
Jiaojiangcun,28.6804,121.45,0,471500,44
Harrisburg,40.2752,-76.8843,0,472261,239
Laohekou,32.3849,111.6695,0,471482,44
Kagithane,41.0719,28.9664,0,437026,231
Agege,6.6219,3.3258,0,459939,164
Angeles city,15.1472,120.5847,0,462928,180
Sao jose do rio preto,-20.8081,-49.3811,0,469173,30
Pasay city,14.55,121.0,0,440656,180
Beian,48.2395,126.5037,0,470000,44
Fujin,47.2489,132.0341,0,470000,44
Salt lake city,22.61,88.4,0,403316,103
Balashikha,55.8167,37.9667,0,468221,187
Xiaoyi,37.1449,111.7718,0,468770,44
Port st. lucie,27.2796,-80.3884,0,468979,239
Lanus,-34.7,-58.4,0,459263,9
Qingzhen,26.5555,106.4646,0,467992,44
Jiangshan,28.7412,118.6225,0,467862,44
Ba`qubah,33.75,44.6333,0,467900,106
Katsushika-ku,35.7434,139.8472,0,453410,112
Buraydah,26.3333,43.9667,0,467410,169
Longjiang,27.582,120.5488,0,464695,44
Tan uyen,11.0508,106.7636,0,466053,247
Long beach,33.7977,-118.167,0,466565,239
Marikina city,14.65,121.1,0,456059,180
Manado,1.4931,124.8413,0,461636,104
Campos,-21.7539,-41.3239,0,463731,30
Kanazawa,36.5611,136.6564,0,462479,112
Iloilo,10.7167,122.5667,0,457626,180
Reno,39.5497,-119.8483,0,463328,239
Calabar,4.9767,8.3383,0,461796,164
Kuqa,41.7156,82.9322,0,462588,44
Piraeus,37.943,23.6469,0,448997,86
Madison,43.0822,-89.393,0,461778,239
Jalgaon,21.004,75.568,0,460468,103
Cranbourne,-38.0996,145.2834,0,460491,12
Kowloon city,22.3282,114.1916,0,418732,100
Maua,-23.6678,-46.4608,0,453286,30
Fukuyama,34.4833,133.3667,0,459576,112
Xicheng,23.3629,103.1545,0,459781,44
Kikwit,-5.0386,18.8181,0,458000,50
Amagasaki,34.7333,135.4,0,450506,112
Pyeongtaek,36.9922,127.1128,0,457873,119
Kurnool,15.83,78.05,0,457633,103
Little rock,34.7256,-92.3577,0,457379,239
Melaka,2.1944,102.2486,0,455300,135
General trias,14.3833,120.8833,0,450583,180
Jian'ou,27.0387,118.3215,0,456000,44
Esenler,41.0339,28.8903,0,444561,231
Huadian,42.9633,126.7478,0,455339,44
Tanta,30.7833,31.0,0,429503,64
Kota kinabalu,5.975,116.0725,0,452058,135
Kursk,51.7167,36.1833,0,450977,187
Minzhu,43.7192,127.337,0,453265,44
Stavropol,45.05,41.9833,0,450680,187
Udaipur,24.58,73.68,0,451100,103
Mogi das cruzes,-23.5228,-46.1878,0,450785,30
Mariupol,47.0958,37.5494,0,449498,236
Eslamshahr,35.5606,51.2347,0,448129,105
San nicolas de los garza,25.75,-100.2833,0,443273,144
San nicolas de los garza,25.75,-100.2833,0,443273,145
Greenville,34.8354,-82.3646,0,450487,239
Sham shui po,22.3307,114.1622,0,405869,100
Barcelona,10.1333,-64.6833,0,448016,245
Barcelona,10.1333,-64.6833,0,448016,246
Constantine,36.365,6.6147,0,448374,2
Tanbei,35.0907,112.9317,0,447701,44
Ado-ekiti,7.6167,5.2167,0,446749,164
Batman,37.887,41.132,0,447106,231
Bandung,-6.912,107.6097,0,432557,104
Baisha,29.4774,119.2853,0,446000,44
Avcilar,40.9792,28.7214,0,435625,231
Denton,33.2175,-97.1418,0,445814,239
Rodriguez,14.7167,121.1167,0,443954,180
Taoyuan district,24.9913,121.3143,0,443273,223
Yongji,34.867,110.4417,0,444724,44
Chauddagram,23.2283,91.3133,0,443648,17
Danjiangkou,32.5408,111.5098,0,443755,44
Kahramanmaras,37.5833,36.9333,0,443575,231
Fujisawa,35.35,139.4667,0,436744,112
Andijon,40.7833,72.3333,0,441700,243
Mathura,27.4925,77.6736,0,441894,103
Zurich,47.3744,8.5411,0,436332,219
Zurich,47.3744,8.5411,0,436332,220
Zurich,47.3744,8.5411,0,436332,221
Diadema,-23.6861,-46.6106,0,426757,30
Machida,35.7106,139.4386,0,434414,112
Ulan-ude,51.8272,107.6064,0,439128,187
Spokane,47.6671,-117.433,0,440270,239
Ning'an,44.3439,129.4656,0,440000,44
Zhangjiakou shi xuanhua qu,40.5944,115.0243,0,409745,44
Sunch'on,39.4167,125.9333,0,437000,118
Jinchang,38.5168,102.1866,0,438026,44
Kashiwa,35.8676,139.9758,0,433941,112
Guangming,45.3357,122.7765,0,437559,44
Sangli,16.8667,74.5667,0,436639,103
Oakland,37.7904,-122.2166,0,437548,239
Beira,-19.8333,34.85,0,436240,152
Kupang,-10.1702,123.6077,0,433970,104
Jeju,33.5097,126.5219,0,435413,119
Davangere,14.4666,75.9242,0,435125,103
Caxias do sul,-29.1667,-51.1833,0,435564,30
Manizales,5.1,-75.55,0,434403,46
Manizales,5.1,-75.55,0,434403,47
Yogyakarta,-7.8014,110.3644,0,422732,104
Calicut,11.25,75.77,0,431560,103
Koumassi,5.3,-3.95,0,412282,53
Veracruz,19.1903,-96.1533,0,428323,144
Veracruz,19.1903,-96.1533,0,428323,145
Zanjan,36.6789,48.5056,0,433475,105
Welkom,-27.9831,26.7208,0,431944,211
Shinagawa-ku,35.6092,139.7302,0,415729,112
Kenitra,34.25,-6.5833,0,431282,151
Agadir,30.4333,-9.6,0,421844,151
?somolu,6.5408,3.3872,0,403569,164
Uyo,5.05,7.9333,0,429900,164
Sokoto,13.0622,5.2339,0,427760,164
Lancaster,40.042,-76.3012,0,430621,239
Masan,35.1833,128.55,0,429612,119
Huili chengguanzhen,26.6614,102.2469,0,430066,44
Sidi bouzid,35.0381,9.4858,0,429912,230
Cusco,-13.525,-71.9722,0,428450,179
Porto velho,-8.7619,-63.9039,0,428527,30
Sihung,37.3799,126.8029,0,425184,119
Xalapa,19.54,-96.9275,0,424755,144
Xalapa,19.54,-96.9275,0,424755,145
Florencio varela,-34.8167,-58.2833,0,426005,9
Tver,56.8578,35.9219,0,424969,187
Trabzon,41.005,39.7225,0,426882,231
Malatya,38.3486,38.3194,0,426381,231
Xunyang,32.8357,109.359,0,426677,44
Uijeongbu,37.7486,127.0389,0,421579,119
Akola,20.7,77.0,0,425817,103
Aomori,40.8223,140.7307,0,425962,112
Yan'an beilu,44.0144,87.2674,0,426253,44
Owo,7.1961,5.5864,0,425700,164
Aves,41.44,-8.3,0,425411,183
Buenaventura,3.8772,-77.0267,0,423927,46
Buenaventura,3.8772,-77.0267,0,423927,47
Poughkeepsie,41.695,-73.9211,0,423386,239
Laval,45.5833,-73.75,0,422993,38
Boise,43.6005,-116.2308,0,422665,239
Toyota,35.0824,137.1563,0,422106,112
Santa rosa,14.3167,121.1167,0,414812,180
Daloa,6.8833,-6.45,0,421871,53
Elazig,38.6744,39.2228,0,421726,231
Hpa-an,16.8906,97.6333,0,421525,153
Rahimyar khan,28.42,70.3,0,420419,173
Bettiah,26.8014,84.5028,0,414453,103
Ugep,5.8,8.0833,0,420000,164
Winston-salem,36.1029,-80.261,0,420400,239
Kushtia,23.9101,89.1231,0,418312,17
Mishan,45.542,131.8666,0,420000,44
Hailin,44.5735,129.3825,0,420000,44
Seremban,2.7222,101.9417,0,419536,135
Boa vista,2.8194,-60.6714,0,419652,30
Lecheng,25.1307,113.3472,0,419500,44
Zhengjiatun,43.513,123.5003,0,419529,44
Luhansk,48.5667,39.3333,0,417990,236
Pencheng,29.6792,115.6611,0,419047,44
Magnitogorsk,53.3833,59.0333,0,418241,187
Thu dau mot,10.9667,106.65,0,417000,247
Takamatsu,34.35,134.05,0,417814,112
Syracuse,43.0407,-76.1437,0,418875,239
El obeid,13.1833,30.2167,0,418280,216
Da'an,45.505,124.2863,0,418232,44
Xingren,25.4352,105.1907,0,417919,44
Binan,14.3333,121.0833,0,407437,180
Fenyang,37.2647,111.7775,0,416212,44
Ajdabiya,30.7556,20.2253,0,416000,129
Paju,37.8667,126.8,0,415345,119
Mataram,-8.5833,116.1167,0,408900,104
Carapicuiba,-23.5192,-46.8358,0,403183,30
Jhang city,31.2694,72.3161,0,414131,173
Tepic,21.5083,-104.8931,0,413609,144
Tepic,21.5083,-104.8931,0,413609,145
Jayapura,-2.533,140.717,0,413283,104
Rio branco,-9.9747,-67.81,0,413418,30
Toyama,36.6959,137.2137,0,413028,112
Fangting,31.1282,104.1695,0,412758,44
Sanandaj,35.3144,46.9922,0,412767,105
Delhi cantonment,28.6,77.1333,0,405633,103
Linghai,41.1676,121.3558,0,412513,44
Shorapur,16.52,76.76,0,412291,103
Toyonaka,34.7833,135.4667,0,401233,112
Sochi,43.5853,39.7203,0,411524,187
Bhagalpur,25.25,87.0,0,410210,103
Bellary,15.1,76.9167,0,410445,103
Ivanovo,57.0,41.0,0,406933,187
Kisumu,-0.0833,34.7667,0,409928,116
Augusta,33.3645,-82.0708,0,409668,239
Turkmenabat,39.0833,63.5667,0,408906,232
Zaria,11.0667,7.7,0,408198,164
Bryansk,53.25,34.3667,0,406553,187
Kumi,36.1195,128.3444,0,407880,119
Asyut,27.1833,31.1667,0,389307,64
Wanyuan,32.0691,108.0351,0,407594,44
Maracay,10.2469,-67.5958,0,407109,245
Maracay,10.2469,-67.5958,0,407109,246
Padiala,30.5667,76.6333,0,406192,103
Yuregir,36.9981,35.3439,0,407054,231
Jiexiu,37.0282,111.9103,0,406517,44
Stockton,37.9765,-121.3109,0,406822,239
Bogra,24.85,89.3667,0,400983,17
Santa fe,-31.6333,-60.7,0,405683,9
Campina grande,-7.2306,-35.8811,0,405072,30
Nagasaki,32.7447,129.8736,0,404656,112
Szczecin,53.4325,14.5481,0,403833,182
Maringa,-23.4,-51.9167,0,403063,30
Palm coast,29.5389,-81.2457,0,403834,239
Chattanooga,35.066,-85.2481,0,403233,239
Qazvin,36.2667,50.0,0,402748,105
Quilon,8.88,76.6,0,397419,103
Jundiai,-23.1858,-46.8839,0,401896,30
Hirakata,34.8167,135.65,0,396694,112
Gifu,35.4232,136.7608,0,400118,112
Khayelitsha,-34.0403,18.6778,0,391749,211
Kukatpalli,17.4849,78.4138,0,385821,103
Jiangjiafan,31.0238,111.9709,0,400000,44
Maungdaw,20.8167,92.3667,0,400000,153
Kissimmee,28.3041,-81.4169,0,399929,239
Durham,35.9792,-78.9022,0,399762,239
Dera ghazi khan,30.0331,70.64,0,399064,173
Miyazaki,31.9167,131.4167,0,397476,112
Bhatpara,22.87,88.41,0,386019,103
Hazaribagh,23.98,85.35,0,394532,103
Sandakan,5.8388,118.1173,0,396290,135
Taytay,14.5692,121.1325,0,386451,180
Hejin,35.5914,110.706,0,395527,44
Olinda,-8.0,-34.8833,0,393115,30
Thanh hoa,19.8075,105.7764,0,393294,247
Surgut,61.25,73.4333,0,395900,187
Nnewi,6.0167,6.9167,0,391227,164
Minamisuita,34.7594,135.5169,0,384953,112
Thies,14.7833,-16.9167,0,394544,198
Betsiboka,-16.95,46.83,0,394561,133
Belgorod,50.6,36.6,0,391702,187
Tangail,24.2644,89.9181,0,392300,17
Yokosuka,35.25,139.6667,0,390275,112
Nha trang,12.245,109.1917,0,392279,247
Malabon,14.66,120.96,0,380522,180
Al jahra',29.35,47.6833,0,393432,120
Yola,9.23,12.46,0,392854,164
Pasto,1.2078,-77.2772,0,392930,46
Pasto,1.2078,-77.2772,0,392930,47
Lobito,-12.3597,13.5308,0,393079,6
Al jubayl,27.0,49.6544,0,392948,169
Saurimo,-9.65,20.4,0,393000,6
Bologna,44.4939,11.3428,0,392564,110
Arlington,32.6998,-97.125,0,392304,239
Gujrat,32.5739,74.0789,0,390533,173
Ad diwaniyah,31.9892,44.9247,0,391600,106
Piracicaba,-22.7253,-47.6492,0,391449,30
Hancheng,35.4768,110.4419,0,391164,44
Karamay,45.5799,84.8892,0,391008,44
Kakinada,16.9661,82.255,0,384182,103
San-pedro,4.75,-6.6333,0,390654,53
Tieli,46.9838,128.04,0,390000,44
Cilegon,-6.0027,106.0112,0,387543,104
Darbhanga,26.17,85.9,0,380125,103
Victorville,34.5277,-117.3536,0,389060,239
Gwoza,11.0861,13.6914,0,388600,164
Saki,8.6667,3.4,0,388225,164
Tetouan,35.5667,-5.3667,0,380787,151
Aqtobe,50.2836,57.2297,0,387807,115
Biba,28.9218,30.9844,0,385528,64
Plovdiv,42.15,24.75,0,383540,32
Oyo,7.85,3.933,0,386723,164
Ilesa,7.6167,4.7167,0,384334,164
Tarlac city,15.4869,120.59,0,385398,180
Okazaki,34.9543,137.1744,0,385376,112
Sirur,18.83,74.38,0,385414,103
Cainta,14.5667,121.1167,0,376933,180
Ha'il,27.5167,41.6833,0,385257,169
Garoowe,8.4,48.4667,0,385000,210
Olomouc,49.5939,17.2508,0,384000,58
Yidu,30.388,111.4505,0,384598,44
Lianzhou,24.7868,112.3735,0,384700,44
Ceel baraf,3.2073,45.7587,0,384630,210
Florence,43.7714,11.2542,0,380948,110
Christchurch,-43.531,172.6365,0,383200,160
Nuevo laredo,27.4861,-99.5069,0,384033,144
Nuevo laredo,27.4861,-99.5069,0,384033,145
Brno,49.1925,16.6083,0,382405,58
Bawshar,23.5333,58.3833,0,383257,172
London,42.9836,-81.2497,0,383822,38
Novi sad,45.2542,19.8425,0,380000,199
Aurora,39.7083,-104.7237,0,383496,239
Gusau,12.15,6.6667,0,383162,164
Modesto,37.6375,-121.0028,0,382994,239
Kaunas,54.8972,23.8861,0,381007,131
Sardarshahr,28.4401,74.4908,0,382474,103
Zetang,29.238,91.771,0,382610,44
Las palmas,28.1272,-15.4314,0,378797,214
Ichinomiya,35.3039,136.8031,0,378681,112
Taunggyi,20.7836,97.0354,0,381639,153
Lancaster,34.6935,-118.1753,0,381732,239
Fayetteville,36.0714,-94.1661,0,381636,239
Cantonment,31.5167,74.3833,0,374872,173
Panihati,22.69,88.37,0,377347,103
Huancayo,-12.0667,-75.2167,0,378203,179
Betim,-19.9678,-44.1978,0,378089,30
Usulutan,13.35,-88.45,0,378606,65
Usulutan,13.35,-88.45,0,378606,66
Sintra,38.7992,-9.3883,0,377835,183
Chitungwiza,-17.9939,31.0481,0,371244,203
Hatay,36.2025,36.1606,0,377793,231
Iquitos,-3.75,-73.25,0,377609,179
Sivas,39.75,37.0167,0,377561,231
Helixi,30.6267,118.9861,0,376857,44
Scranton,41.4044,-75.6649,0,376974,239
Mamou,10.3833,-12.0833,0,376269,92
Mamou,10.3833,-12.0833,0,376269,93
Al kharj,24.1483,47.305,0,376325,169
Manukau city,-37.0,174.885,0,375600,160
Stoke-on-trent,53.0,-2.1833,0,372775,238
Cumana,10.45,-64.1667,0,374706,245
Cumana,10.45,-64.1667,0,374706,246
Rohtak,28.8909,76.5796,0,374292,103
Vinnytsia,49.2333,28.4833,0,371855,236
Maler kotla,30.5167,75.8833,0,374000,103
Lipa city,13.9411,121.1622,0,372931,180
Mandaue city,10.3333,123.9333,0,364116,180
Bhawana,31.5661,72.6461,0,373841,173
Khorramabad,33.4878,48.3558,0,373416,105
Ambon,-3.7,128.1667,0,372249,104
Takasaki,36.3219,139.0033,0,372639,112
Butuan,8.9534,125.5288,0,372910,180
Toyohashi,34.7692,137.3915,0,371507,112
Keelung,25.1333,121.7333,0,370155,223
Baguio city,16.4119,120.5933,0,366358,180
La florida,-33.5333,-70.5833,0,366916,42
La florida,-33.5333,-70.5833,0,366916,43
Gebze,40.8,29.4333,0,371000,231
Lengshuijiang,27.6858,111.4279,0,370300,44
Petare,10.4833,-66.8167,0,369000,245
Petare,10.4833,-66.8167,0,369000,246
Anguo,38.4177,115.3204,0,370317,44
Kita-ku,35.7528,139.7336,0,353058,112
Madan,30.3392,48.3042,0,370180,105
Panshi,42.9392,126.0561,0,370238,44
Bharatpur,27.6833,84.4333,0,369377,157
Az zubayr,30.3833,47.7,0,370000,106
Caucaia,-3.7167,-38.65,0,368918,30
Vitsyebsk,55.1917,30.2056,0,366299,19
Shinjuku,35.6939,139.7034,0,349385,112
Nicolas romero,19.5833,-99.3667,0,366602,144
Nicolas romero,19.5833,-99.3667,0,366602,145
Huichang,34.9136,112.7852,0,367113,44
Nagano,36.6486,138.1947,0,367184,112
Bauru,-22.315,-49.0608,0,366992,30
Yanjiao,39.9432,116.8036,0,363809,44
Bochum,51.4819,7.2158,0,364454,83
Tecamac,19.7131,-98.9683,0,364579,144
Tecamac,19.7131,-98.9683,0,364579,145
Anapolis,-16.3339,-48.9519,0,366491,30
Coventry!,52.4081,-1.5106,0,362690,238
Oxnard,34.1964,-119.1815,0,366330,239
Korba,22.35,82.68,0,365253,103
Cibinong,-6.485,106.842,0,363424,104
Dasarhalli,13.0465,77.513,0,349720,103
Qardho,9.5,49.0833,0,365000,210
Wonsan,39.1475,127.4461,0,363127,118
Kocaeli,40.7625,29.9175,0,363416,231
Newcastle,-27.7464,29.9328,0,363236,211
Iligan,8.23,124.25,0,363115,180
Youngstown,41.0993,-80.6463,0,363541,239
Cabuyao,14.275,121.125,0,355330,180
Kayapinar,37.94,40.19,0,362407,231
Nakano,35.7073,139.6637,0,341014,112
Utrecht,52.0833,5.1167,0,359370,158
Bengkulu,-3.7956,102.2592,0,360495,104
Orizaba,18.85,-97.1,0,355333,144
Orizaba,18.85,-97.1,0,355333,145
Blumenau,-26.9333,-49.05,0,361855,30
Montes claros,-16.7306,-43.8639,0,361915,30
Indio,33.7346,-116.2346,0,361831,239
Petion-ville,18.5128,-72.2864,0,359615,96
Petion-ville,18.5128,-72.2864,0,359615,97
Tungi,23.9,90.41,0,350000,17
Buurhakaba,2.7833,44.0833,0,360795,210
Shuanghe,30.3866,106.7756,0,360000,44
Konak,38.4189,27.1285,0,356563,231
Ash shuhada',30.6039,30.9021,0,358486,64
Pensacola,30.4413,-87.1911,0,360711,239
Umuahia,5.5333,7.4833,0,359230,164
Gedaref,14.0333,35.3833,0,354927,216
Palu,-0.895,119.8594,0,359350,104
Mardan,34.2012,72.0258,0,358604,173
Pokhara,28.2083,83.9889,0,353841,157
Mahilyow,53.9167,30.35,0,357100,19
Wudalianchi,48.6433,126.1408,0,360000,44
Hrodna,53.6667,23.8333,0,357493,19
Sungai petani,5.65,100.48,0,358499,135
Linxia chengguanzhen,35.6,103.2167,0,355968,44
Sikar,27.62,75.15,0,359293,103
Nam dinh,20.42,106.1683,0,352108,247
Vitoria,-20.2889,-40.3083,0,355875,30
Sasaram,24.95,84.03,0,358283,103
Karur,10.9601,78.0766,0,358468,103
Franca,-20.5389,-47.4008,0,358539,30
Vladimir,56.1286,40.4058,0,356168,187
Karnal,29.686,76.989,0,357334,103
Kismaayo,-0.3581,42.5453,0,358000,210
Sao vicente,-23.9633,-46.3922,0,355542,30
Kawagoe,35.9251,139.4858,0,354598,112
Villahermosa,17.9892,-92.9281,0,353577,144
Villahermosa,17.9892,-92.9281,0,353577,145
Taraz,42.9,71.3667,0,357795,115
Cubal,-13.1117,14.3672,0,357618,6
Luena,-11.7918,19.9062,0,357413,6
Ibb,13.9667,44.1667,0,350864,251
Yong'an,25.9733,117.3593,0,357000,44
Wuppertal,51.2667,7.1833,0,355004,83
Manisa,38.6306,27.4222,0,356702,231
San fernando,15.0333,120.6833,0,354666,180
Chanda,19.95,79.297,0,355739,103
Minatitlan,17.9833,-94.55,0,356020,144
Minatitlan,17.9833,-94.55,0,356020,145
Malmo,55.6058,13.0358,0,351749,218
Nizhniy tagil,57.9167,59.9667,0,355693,187
San pedro,14.3583,121.0583,0,326001,180
Cuito,-12.3833,16.9333,0,355423,6
Hongzhai,34.9857,104.5446,0,355037,44
Guediawaye,14.7833,-17.4,0,329659,198
Wakayama,34.2333,135.1667,0,353299,112
Tin shui wai,22.4608,114.0012,0,286232,100
Pavlodar,52.3,76.95,0,353930,115
Gimpo,37.7,126.6,0,352683,119
Itaquaquecetuba,-23.4864,-46.3486,0,352801,30
Nara,34.6844,135.805,0,352377,112
Van,38.4942,43.38,0,353419,231
Corrientes,-27.4833,-58.8167,0,352646,9
Neiva,2.9345,-75.2809,0,353033,46
Neiva,2.9345,-75.2809,0,353033,47
Arkhangelsk,64.55,40.5333,0,351488,187
Batangas,13.83,121.0,0,351437,180
Licheng,24.4935,110.3902,0,352472,44
Koshigaya,35.8911,139.7909,0,346768,112
Sinuiju,40.1,124.4,0,352000,118
Cabimas,10.4,-71.4333,0,351735,245
Cabimas,10.4,-71.4333,0,351735,246
Yakeshi,49.2842,120.7283,0,352173,44
Oruro,-17.9667,-67.1167,0,351802,26
Oruro,-17.9667,-67.1167,0,351802,27
Ahmadnagar,19.08,74.73,0,350859,103
Avadi,13.1097,80.0972,0,345996,103
Sarai alamgir,32.9,73.75,0,350288,173
Varna,43.2167,27.9167,0,348668,32
Gorgan,36.8386,54.4347,0,350676,105
Takatsuki,34.85,135.6167,0,347496,112
Holguin,20.8869,-76.2592,0,350191,55
Holguin,20.8869,-76.2592,0,350191,56
Qo`qon,40.5286,70.9425,0,350000,243
Semey,50.4333,80.2667,0,350201,115
Yingmen,39.9487,97.4395,0,350000,44
Cariacica,-20.2639,-40.42,0,348738,30
Palmira,3.5833,-76.25,0,349294,46
Palmira,3.5833,-76.25,0,349294,47
Tapachula,14.9,-92.2667,0,348156,144
Tapachula,14.9,-92.2667,0,348156,145
Bydgoszcz,53.1219,18.0003,0,346739,182
Antofagasta,-23.65,-70.4,0,348517,42
Antofagasta,-23.65,-70.4,0,348517,43
Anaheim,33.839,-117.8574,0,348204,239
Rajahmundry,16.98,81.78,0,341831,103
Chita,52.0333,113.5,0,347088,187
Bonita springs,26.3558,-81.7859,0,347581,239
Caruaru,-8.2828,-35.9758,0,347088,30
Nice,43.7034,7.2663,0,342669,76
Shahjanpur,27.88,79.91,0,346103,103
Antonio enes,-16.2333,39.9167,0,347175,152
Central coast,-33.3,151.2,0,346596,12
Pamukkale,37.9167,29.1167,0,346625,231
Wad medani,14.4,33.5167,0,345290,216
Oskemen,49.9833,82.6167,0,346127,115
Tanch'on,40.458,128.911,0,345876,118
Tokorozawa,35.7996,139.4686,0,341289,112
Hosur,12.7409,77.8253,0,345000,103
Serekunda,13.4333,-16.6667,0,340000,81
Greensboro,36.0956,-79.8271,0,345270,239
Kusti,13.1667,32.6667,0,345068,216
Cuddapah,14.47,78.82,0,344893,103
Simferopol,44.9484,34.1,0,341799,236
Sariyer,41.1669,29.0572,0,342503,231
Sumqayit,40.5917,49.6397,0,341200,14
Otsu,35.0167,135.85,0,342607,112
Vitoria da conquista,-14.8658,-40.8389,0,343230,30
Makiivka,48.0556,37.9611,0,343158,236
Vung tau,10.3833,107.1167,0,341552,247
Brest,52.1347,23.6569,0,340723,19
Uruapan,19.4208,-102.0628,0,334749,144
Uruapan,19.4208,-102.0628,0,334749,145
Gomez palacio,25.5611,-103.4983,0,342286,144
Gomez palacio,25.5611,-103.4983,0,342286,145
Yeosu,34.7333,127.7333,0,341994,119
Kaluga,54.5333,36.2667,0,341892,187
Meram,37.8364,32.4383,0,342315,231
Muzaffarpur,26.1225,85.3906,0,333200,103
Alwar,27.5498,76.6355,0,341422,103
Lublin,51.25,22.5667,0,339850,182
Lianran,24.9211,102.4778,0,341341,44
Buon ma thuot,12.6667,108.05,0,340000,247
Cuernavaca,18.9186,-99.2342,0,338650,144
Cuernavaca,18.9186,-99.2342,0,338650,145
Alicante,38.3453,-0.4831,0,338577,214
East london,-33.0175,27.9047,0,338627,211
Tarsus,36.9165,34.8951,0,339676,231
Matadi,-5.8167,13.4833,0,337000,50
Islip,40.7385,-73.1888,0,339596,239
Cimanggis,-6.3645,106.8591,0,324343,104
Kaesong,37.9667,126.55,0,338155,118
Beni,0.5,29.4667,0,332903,50
Sultanbeyli,40.9683,29.2617,0,327798,231
Huntsville,34.6981,-86.6412,0,339136,239
Randburg,-26.0936,28.0064,0,337053,211
Jitpur,27.6666,85.3333,0,337785,157
Beylikduzu,41.0011,28.6419,0,331525,231
Petrolina,-9.3928,-40.5078,0,337683,30
Chinju,35.2,128.0833,0,337230,119
Tangdong,25.9755,113.2302,0,337495,44
Reading,51.4542,-0.9731,0,337108,238
Sambalpur,21.47,83.97,0,335761,103
Hangu,39.232,117.777,0,332793,44
Belfast,54.5964,-5.93,0,333871,238
Shah latif town,24.8806,67.1625,0,335823,173
Iwaki,37.0505,140.8877,0,336111,112
Salamanca,20.5703,-101.1972,0,327169,144
Salamanca,20.5703,-101.1972,0,327169,145
Yingzhong,32.2381,119.8133,0,334977,44
Vina del mar,-33.0244,-71.5517,0,332875,42
Vina del mar,-33.0244,-71.5517,0,332875,43
Hirosaki,40.6031,140.4638,0,335203,112
Bielefeld,52.0211,8.5347,0,334002,83
Az zaqaziq,30.5667,31.5,0,302840,64
Nazret,8.5414,39.2689,0,324000,71
Cuenca,-2.8974,-79.0045,0,329928,63
Tampere,61.4981,23.76,0,334112,75
Bonn,50.7333,7.1,0,331885,83
Al fayyum,29.3084,30.8441,0,315940,64
Blida,36.4722,2.8333,0,331779,2
Ciudad obregon,27.4939,-109.9389,0,329404,144
Ciudad obregon,27.4939,-109.9389,0,329404,145
Uberaba,-19.7478,-47.9319,0,333783,30
Corpus christi,27.7254,-97.3767,0,333764,239
Asan,36.7833,126.9833,0,332790,119
Ribeirao das neves,-19.7669,-44.0869,0,331045,30
Soledad de graciano sanchez,22.1833,-100.9333,0,332072,144
Soledad de graciano sanchez,22.1833,-100.9333,0,332072,145
Maebashi,36.3895,139.0634,0,331849,112
Kamarhati,22.6686,88.3704,0,330211,103
Ganca,40.6828,46.3606,0,331400,14
Kendari,-3.9907,122.5086,0,331013,104
Balikesir,39.6333,27.8833,0,331788,231
Thai nguyen,21.6,105.85,0,330000,247
Asahikawa,43.7706,142.365,0,331392,112
Smolensk,54.7828,32.0453,0,329853,187
Dahuk,36.8667,43.0,0,330600,106
Wonju,37.3417,127.9208,0,330854,119
Nakuru,-0.3,36.0667,0,307990,116
Lafia,8.5,8.5167,0,330712,164
Fort wayne,41.0888,-85.1436,0,330305,239
Gungoren,41.0225,28.8717,0,289331,231
Koriyama,37.4004,140.3597,0,329706,112
Bamiantong,44.9164,130.5212,0,330000,44
Taourirt,34.4169,-2.885,0,321876,151
Rampur,28.8,79.0,0,325248,103
Debrecen,47.53,21.6392,0,328642,101
Cabanatuan city,15.4908,120.9678,0,327325,180
Markham,43.8767,-79.2633,0,328966,38
Fayetteville,35.085,-78.9772,0,328827,239
Pelotas,-31.7719,-52.3425,0,328275,30
Roodepoort,-26.1625,27.8725,0,326416,211
Volzhskiy,48.8056,44.7417,0,326055,187
Ann arbor,42.2759,-83.731,0,327814,239
Bijapur,16.83,75.71,0,327427,103
Sukabumi,-6.9181,106.9315,0,320970,104
Tharad,24.3926,71.6248,0,327289,103
Ratnagiri,16.9944,73.3,0,327120,103
Ulanhot,46.0726,122.0719,0,327081,44
Yunzhong,39.8143,113.0946,0,326849,44
Jackson,32.3157,-90.2125,0,326977,239
Cotabato,7.22,124.25,0,325079,180
Al fallujah,33.35,43.7833,0,326471,106
Kochi,33.5589,133.5314,0,325560,112
Minna,9.6139,6.5569,0,322163,164
Bielsko-biala,49.8225,19.0444,0,325000,182
Canoas,-29.92,-51.18,0,323827,30
Gwangmyeongni,37.476,126.866,0,318021,119
Cluj-napoca,46.7667,23.5833,0,324576,186
Bari,41.1253,16.8667,0,323370,110
Pucallpa,-8.3833,-74.55,0,326040,179
Kuching,1.5575,110.3439,0,325132,135
Gonder,12.6075,37.4592,0,323900,71
Kikuyu,-1.25,36.6667,0,323881,116
Mekele,13.4969,39.4769,0,323700,71
Gonaives,19.4456,-72.6883,0,324043,96
Gonaives,19.4456,-72.6883,0,324043,97
Guasave,25.5744,-108.4706,0,320000,144
Guasave,25.5744,-108.4706,0,320000,145
Naha,26.2122,127.6792,0,316048,112
Nantes,47.2181,-1.5528,0,318808,76
!binxian,35.0364,108.0764,0,323256,44
Shimoga,13.9333,75.5667,0,322650,103
Hotan,37.1,80.0167,0,322300,44
Kaiyuan,23.7147,103.2585,0,322693,44
Ciudad del este,-25.5167,-54.6167,0,320782,178
Temara,33.9267,-6.9122,0,313510,151
Antioch,37.9787,-121.796,0,322796,239
Uige,-7.6167,15.05,0,322531,6
Osh,40.5333,72.7833,0,322164,121
Cordoba,37.8845,-4.7796,0,322071,214
Camaguey,21.3839,-77.9075,0,321992,55
Camaguey,21.3839,-77.9075,0,321992,56
Mobile,30.6782,-88.1162,0,322079,239
San salvador de jujuy,-24.1833,-65.3,0,321789,9
Al kut,32.4907,45.8304,0,321521,106
Cherepovets,59.1167,37.9,0,318856,187
Lexington,38.0423,-84.4587,0,321354,239
San miguelito,9.033,-79.5,0,315019,175
San miguelito,9.033,-79.5,0,315019,176
Okene,7.55,6.2333,0,320260,164
Timisoara,45.7597,21.23,0,319279,186
Menongue,-14.6556,17.6842,0,320914,6
Junagadh,21.52,70.463,0,320250,103
Katsina,12.9889,7.6008,0,318459,164
Poltava,49.5894,34.5514,0,317847,236
Maroua,10.5971,14.3157,0,319941,37
Xiaoli,22.6782,113.2313,0,315820,44
Kaech'on,39.6986,125.9061,0,319554,118
Asan,36.35,126.9167,0,319929,119
Tehuacan,18.4617,-97.3928,0,319375,144
Tehuacan,18.4617,-97.3928,0,319375,145
Aksaray,38.3742,34.0289,0,319865,231
Attiecoube,5.3333,-4.0333,0,313135,53
Coatzacoalcos,18.15,-94.4333,0,319187,144
Coatzacoalcos,18.15,-94.4333,0,319187,145
Saransk,54.1833,45.1833,0,318841,187
Nukus,42.4667,59.6,0,319583,243
Puerto plata,19.8,-70.6833,0,318419,62
Hapur,28.7309,77.7757,0,317004,103
Zalantun,48.0033,122.7365,0,318933,44
Munster,51.9625,7.6256,0,317713,83
Trichur,10.52,76.21,0,315596,103
An nhon,13.917,109.083,0,317620,247
Taubate,-23.025,-45.5556,0,317915,30
Binangonan,14.4514,121.1919,0,313631,180
Cirebon,-6.7071,108.5574,0,316126,104
Safi,32.2833,-9.2333,0,308508,151
Mitchells plain,-34.0506,18.6181,0,310485,211
Boaco,12.4719,-85.6594,0,317000,161
Boaco,12.4719,-85.6594,0,317000,162
Asheville,35.5707,-82.5537,0,316694,239
Ca mau,9.1833,105.15,0,315270,247
Trenton,40.2237,-74.7641,0,316436,239
Toshima,35.7261,139.7167,0,297954,112
Vologda,59.2167,39.9,0,313012,187
Barddhaman,23.2333,87.8667,0,314265,103
Tanza,14.3944,120.8531,0,312116,180
Bor,6.2125,31.5608,0,315351,213
Kasur,31.1167,74.45,0,314617,173
Yakou,33.2937,113.5203,0,313828,44
Santa rosa,38.4458,-122.7067,0,314196,239
Orel,52.9686,36.0694,0,311625,187
Shahr-e qods,35.7214,51.1089,0,309605,105
Kingston upon hull,53.7444,-0.3325,0,314018,238
Mannheim,49.4878,8.4661,0,311831,83
Santa ana,33.7367,-117.8819,0,313818,239
Guaruja,-23.9936,-46.2564,0,311230,30
Playa del carmen,20.6281,-87.0755,0,304942,144
Playa del carmen,20.6281,-87.0755,0,304942,145
Pasir gudang,1.5028,103.9356,0,312499,135
Datang,22.9481,113.9276,0,310889,44
Panvel,18.9944,73.1139,0,311434,103
Lansing,42.7142,-84.5601,0,312829,239
Zarzal,4.3983,-76.0772,0,312599,46
Zarzal,4.3983,-76.0772,0,312599,47
La victoria,18.55,-69.9,0,312345,62
Port elizabeth,-33.9581,25.6,0,312392,211
Alanya,36.55,32.0,0,312319,231
Nizamabad,18.672,78.094,0,311152,103
Al `ajami,31.0959,29.7604,0,300000,64
Quy nhon,13.7667,109.2333,0,311000,247
Yakutsk,62.0272,129.7319,0,311760,187
Yokkaichi,34.965,136.6244,0,310263,112
Ponta grossa,-25.0994,-50.1583,0,311611,30
Catania,37.5,15.0903,0,311584,110
Chalco,19.2647,-98.8975,0,310130,144
Chalco,19.2647,-98.8975,0,310130,145
Henderson,36.0133,-115.0381,0,311250,239
Gwangju,37.3667,127.2833,0,310278,119
Longquan,25.9106,114.786,0,310700,44
Karlsruhe,49.0092,8.404,0,308436,83
Shahriar,35.6597,51.0592,0,309607,105
Kurgan,55.4408,65.3411,0,309285,187
Kasugai,35.2475,136.9722,0,306449,112
St. paul,44.9478,-93.1039,0,309751,239
Sariwon,38.5064,125.7597,0,307764,118
St. catharines,43.1833,-79.2333,0,309319,38
Karawang,-6.3125,107.295,0,307880,104
Lakeland,28.0557,-81.9545,0,308994,239
Niagara falls,43.06,-79.1067,0,308596,38
Oulgaret,11.957,79.7737,0,300104,103
Taboao da serra,-23.5328,-46.7994,0,293652,30
Vladikavkaz,43.04,44.6775,0,306978,187
Nghi son,19.417,105.75,0,307304,247
Juliaca,-15.4833,-70.1333,0,307417,179
Parbhani,19.27,76.78,0,307170,103
Hisar,29.15,75.7,0,307024,103
Puerto la cruz,10.2,-64.6333,0,306261,245
Puerto la cruz,10.2,-64.6333,0,306261,246
Puerto princesa,9.75,118.75,0,307079,180
Podolsk,55.4311,37.5456,0,299660,187
Meguro,35.6415,139.6983,0,286905,112
Ciudad victoria,23.7389,-99.1431,0,305155,144
Ciudad victoria,23.7389,-99.1431,0,305155,145
Ciudad santa catarina,25.6833,-100.45,0,306322,144
Ciudad santa catarina,25.6833,-100.45,0,306322,145
Santarem,-2.43,-54.72,0,306480,30
Newark,40.7245,-74.1725,0,306247,239
Vaughan,43.8333,-79.5,0,306233,38
Awasa,7.05,38.4667,0,300100,71
Oakashicho,34.65,135.0,0,299699,112
Yesilyurt,38.2961,38.2489,0,304839,231
Pekalongan,-6.8833,109.6667,0,298386,104
Pondokaren,-6.2811,106.7019,0,294996,104
Adiyaman,37.7639,38.2778,0,304615,231
Kurume,33.3167,130.5167,0,302858,112
Vila nova de gaia,41.1333,-8.6167,0,302295,183
Paulista,-7.9408,-34.8728,0,300466,30
Oaxaca,17.0606,-96.7253,0,300050,144
Oaxaca,17.0606,-96.7253,0,300050,145
Armenia,4.53,-75.68,0,301226,46
Armenia,4.53,-75.68,0,301226,47
Akita,39.72,140.1026,0,302984,112
Awka,6.2,7.0667,0,301657,164
San bernardo,-33.5833,-70.7,0,301313,42
San bernardo,-33.5833,-70.7,0,301313,43
Curepipe,-20.3188,57.5263,0,299975,142
Iksan,35.9439,126.9544,0,302310,119
Pachuca,20.1,-98.75,0,297848,144
Pachuca,20.1,-98.75,0,297848,145
Al matariyah,31.1833,32.0333,0,300000,64
Soc trang,9.6028,105.9736,0,300000,247
Bahia blanca,-38.7167,-62.2667,0,301572,9
Coacalco,19.6333,-99.0931,0,293444,144
Coacalco,19.6333,-99.0931,0,293444,145
San juan del rio,20.3833,-99.9833,0,301237,144
San juan del rio,20.3833,-99.9833,0,301237,145
Fort collins,40.5477,-105.0656,0,301596,239
Limeira,-22.565,-47.4019,0,300911,30
Popayan,2.4542,-76.6092,0,300837,46
Popayan,2.4542,-76.6092,0,300837,47
Praia grande,-24.0061,-46.4028,0,299261,30
Qianzhou,28.3185,109.7318,0,301000,44
Newcastle,54.98,-1.61,0,300196,238
Maldah,25.0119,88.1433,0,300088,103
Ciudad general escobedo,25.7933,-100.1583,0,299364,144
Ciudad general escobedo,25.7933,-100.1583,0,299364,145
Oyster bay,40.7846,-73.514,0,300743,239
Montpellier,43.6119,3.8772,0,295542,76
Phan thiet,10.9333,108.1,0,299680,247
Stockport,53.4083,-2.1494,0,295200,238
Al qunfudhah,19.1264,41.0789,0,300516,169
Bada barabil,22.12,85.4,0,300000,103
Tampico,22.2553,-97.8686,0,297284,144
Tampico,22.2553,-97.8686,0,297284,145
Bialystok,53.1353,23.1456,0,297554,182
Coatepeque,14.7,-91.8667,0,300000,91
Ash shamiyah,31.9636,44.5989,0,300000,106
Merida,8.48,-71.19,0,300000,245
Merida,8.48,-71.19,0,300000,246
Chakwal,32.9303,72.8556,0,299751,173
Murmansk,68.9706,33.075,0,298096,187
Ar raqqah,35.95,39.01,0,299824,222
Afyonkarahisar,38.7578,30.5386,0,299673,231
Bihar,25.197,85.518,0,297268,103
Jember,-8.1727,113.6873,0,298585,104
Valladolid,41.6528,-4.7236,0,297775,214
Reading,40.34,-75.9267,0,299068,239
Springfield,37.1943,-93.2916,0,298722,239
Iskenderun,36.5817,36.165,0,297943,231
Al mubarraz,25.4416,49.6642,0,298562,169
Petropolis,-22.505,-43.1789,0,298142,30
Augsburg,48.3689,10.8978,0,296478,83
Navotas,14.6667,120.9417,0,247543,180
Chernihiv,51.4939,31.2947,0,294522,236
Yangsan,35.3333,129.0333,0,297532,119
Comilla,23.45,91.2,0,296010,17
Irvine,33.6772,-117.7738,0,297868,239
Bradford,53.8,-1.75,0,293277,238
Tagum,7.4478,125.8078,0,296202,180
Espoo,60.2056,24.6556,0,297132,75
Valparaiso,-33.0461,-71.6197,0,296655,42
Valparaiso,-33.0461,-71.6197,0,296655,43
Silang,14.2306,120.975,0,295644,180
Finglas,53.4597,-6.2181,0,296214,107
Rangpur,25.75,89.2444,0,294265,17
Vigo,42.2314,-8.7124,0,293837,214
Sikandarabad,28.4512,77.6955,0,294858,103
Battalgazi,38.4228,38.3656,0,295821,231
Bali,22.65,88.34,0,293373,103
Corum,40.5455,34.957,0,294807,231
Ismailia,30.5833,32.2667,0,293184,64
Vila teixeira da silva,-12.0072,15.7792,0,294494,6
Panipat,29.3875,76.97,0,294292,103
Delmas,18.55,-72.3,0,284079,96
Delmas,18.55,-72.3,0,284079,97
Strasbourg,48.5833,7.7458,0,290576,76
Mabalacat,15.2167,120.5833,0,293244,180
Batna,35.55,6.1667,0,290645,2
Aizawl,23.7272,92.7178,0,293416,103
Tambov,52.7167,41.4333,0,290365,187
Dexing,28.958,117.7597,0,293201,44
Iasi,47.1622,27.5889,0,290422,186
Kunp'o,37.35,126.95,0,285721,119
San lorenzo,-25.34,-57.52,0,287977,178
Santa maria,14.8183,120.9563,0,289820,180
Sonpur,25.7,85.18,0,288102,103
Groznyy,43.3125,45.6986,0,291687,187
Kherson,46.6425,32.625,0,291428,236
Anchorage,61.1508,-149.1091,0,292545,239
The woodlands,30.1738,-95.5134,0,292380,239
Hong'an,47.21,123.61,0,289999,44
Resistencia,-27.4514,-58.9867,0,291720,9
Graz,47.0708,15.4386,0,289440,13
Karimnagar,18.4386,79.1288,0,289821,103
Brasov,45.6667,25.6167,0,290743,186
Sumida,35.7107,139.8015,0,270823,112
Sekondi,4.9433,-1.704,0,286248,84
South bend,41.6767,-86.2696,0,290915,239
Morioka,39.7021,141.1545,0,290553,112
Sonipat,28.99,77.022,0,289333,103
Setif,36.19,5.41,0,288461,2
Atyrau,47.1167,51.8833,0,290700,115
Ipswich,52.0594,1.1556,0,290000,238
Dewas,22.96,76.06,0,289550,103
Hulin,45.7671,132.9646,0,290000,44
Rockford,42.2596,-89.064,0,289763,239
Savannah,32.0286,-81.1821,0,289607,239
Itagui,6.1667,-75.6167,0,276744,46
Itagui,6.1667,-75.6167,0,276744,47
Croix-des-bouquets,18.5761,-72.2269,0,284812,96
Croix-des-bouquets,18.5761,-72.2269,0,284812,97
Farg`ona,40.3864,71.7864,0,288850,243
Magway,20.15,94.95,0,289247,153
Huixquilucan,19.3611,-99.3508,0,284965,144
Huixquilucan,19.3611,-99.3508,0,284965,145
Lincoln,40.8099,-96.6784,0,289136,239
Ichalkaranji,16.7,74.47,0,287570,103
Punto fijo,11.7167,-70.1833,0,287558,245
Punto fijo,11.7167,-70.1833,0,287558,246
Varzea grande,-15.65,-56.1333,0,287526,30
Sincelejo,9.295,-75.3961,0,286716,46
Sincelejo,9.295,-75.3961,0,286716,47
Ibaraki,34.8164,135.5686,0,283835,112
Katowice!,50.2667,19.0167,0,285711,182
Ar rusayfah,32.0178,36.0464,0,280000,114
Camacari,-12.6978,-38.3239,0,286919,30
Jersey city,40.7184,-74.0686,0,287146,239
San cristobal,7.7682,-72.2322,0,285872,245
San cristobal,7.7682,-72.2322,0,285872,246
Round lake beach,42.3791,-88.0811,0,287012,239
Bolton,53.578,-2.429,0,285372,238
San pablo,14.07,121.325,0,285348,180
Suzano,-23.5428,-46.3108,0,285280,30
Korhogo,9.4167,-5.6167,0,286071,53
Bhatinda,30.23,74.9519,0,285813,103
Cascavel,-24.9556,-53.4553,0,286205,30
Flint,43.0236,-83.6921,0,286324,239
Ostrava,49.8356,18.2925,0,284982,58
Tacna,-18.0147,-70.2489,0,286240,179
Shreveport,32.4653,-93.7955,0,286200,239
Al qurnah,31.0158,47.4306,0,286073,106
Jalna,19.841,75.8864,0,285577,103
Aarhus,56.1572,10.2107,0,285273,59
Constanta,44.1667,28.6333,0,283872,186
San juan sacatepequez,14.7189,-90.6442,0,284798,91
Myeik,12.4333,98.6,0,284498,153
Fukushima,37.7608,140.4747,0,284282,112
Coro,11.395,-69.6816,0,284266,245
Coro,11.395,-69.6816,0,284266,246
Bago,17.3333,96.4833,0,284179,153
Pasarkemis,-6.1703,106.53,0,273659,104
Fuquan,26.7039,107.5087,0,283904,44
Tongchuanshi,35.08,109.03,0,282258,44
Sannai,24.5984,80.8281,0,283004,103
Huozhou,36.5726,111.7176,0,282905,44
Temuco,-38.7333,-72.6667,0,282415,42
Temuco,-38.7333,-72.6667,0,282415,43
Ihosy,-22.4036,46.1258,0,283047,133
Sterlitamak,53.6333,55.95,0,280233,187
Tegal,-6.8667,109.1333,0,275789,104
Ica,-14.0667,-75.7333,0,282407,179
Lucena,13.9333,121.6167,0,278924,180
Plano,33.0502,-96.7486,0,282181,239
Jining,41.03,113.08,0,281716,44
Chuncheon,37.8667,127.7333,0,281596,119
Malard,35.6658,50.9767,0,281027,105
Pematangsiantar,2.96,99.06,0,278055,104
Satna,24.6005,80.8322,0,280222,103
Long xuyen,10.3736,105.4458,0,278658,247
Myrtle beach,33.7094,-78.8844,0,281180,239
Governador valadares,-18.85,-41.9333,0,281046,30
Petrozavodsk,61.7833,34.35,0,278551,187
Santa ana,13.995,-89.5561,0,280000,65
Santa ana,13.995,-89.5561,0,280000,66
Mau,25.9417,83.5611,0,278745,103
Companiganj,22.875,91.2833,0,279870,17
Wiesbaden,50.0825,8.24,0,278950,83
Mingaora,34.7717,72.36,0,279914,173
Davenport,41.5565,-90.6053,0,280282,239
Bukhara,39.7667,64.4333,0,280187,243
Sumbe,-11.2053,13.8417,0,279968,6
Viet tri,21.3,105.4333,0,277539,247
Sunderland,54.906,-1.381,0,277417,238
Barasat,22.72,88.48,0,278435,103
Cherkasy,49.4444,32.0597,0,276360,236
Maastricht,50.85,5.6833,0,277721,158
Corlu,41.15,27.8,0,279251,231
Kostroma,57.7681,40.9269,0,277648,187
Gyeongsan,35.8167,128.7333,0,278500,119
Ciego de avila,21.8481,-78.7631,0,278672,55
Ciego de avila,21.8481,-78.7631,0,278672,56
Mamuju,-2.6833,118.9,0,278764,104
Los alcarrizos,18.5167,-70.0167,0,272776,62
Nizhnevartovsk,60.95,76.6,0,278725,187
San mateo,14.6969,121.1219,0,273306,180
Shaowu,27.3417,117.4869,0,278000,44
Canton,40.8078,-81.3676,0,277741,239
Sfax,34.74,10.76,0,272801,230
Dinajpur,25.6167,88.65,0,276000,17
Dire dawa,9.6,41.8667,0,277000,71
